GivenName,MiddleInitial,Surname,StreetAddress,City,ZipCode,EmailAddress,TelephoneNumber,GUID,Latitude,Longitude,Kilograms,Centimeters,Company,Occupation
Michelle,J,O'Neill,"3394 Francis Mine","Grass Valley",95945,MichelleJONeill@armyspy.com,530-274-0042,d5208a18-b36a-4783-8b30-d695bd9fe9b8,39.109406,-120.999146,91.9,169,"Maloley's Finer Foods","Technical support specialist"
Vivian,J,Pierce,"576 Winifred Way",Indianapolis,46254,VivianJPierce@cuvox.de,765-716-4479,4b9640f5-549f-4e21-96b5-967609b05b02,39.861662,-86.278637,99.9,164,"The Record Shops at TSS","Social psychologist"
Justin,L,Broussard,"3422 Mudlick Road",Spokane,99201,JustinLBroussard@gustr.com,509-459-0018,e76486d7-91f4-4eab-9fc1-1170f22f53f9,47.583808,-117.394433,65.2,173,Veramons,Sewer
Naomi,M,Womack,"639 Union Street",Seattle,98107,NaomiMWomack@dayrep.com,206-789-3211,ef249929-e0af-4144-a4bd-75c06c5e19c3,47.698247,-122.333414,67.8,155,"Rite Solution","Travel agent"
Gerald,A,Miller,"3760 Shingleton Road",Sawyer,49125,GeraldAMiller@gustr.com,269-426-2297,9357ac01-91b2-448e-8cdb-d8e48dc2d60b,41.861656,-86.626446,86.2,171,"Jack Lang","Labor trainer"
Vincent,M,Johansson,"2723 Stone Lane",Philadelphia,19103,VincentMJohansson@dayrep.com,610-342-6383,21b9241b-1c23-4757-8a1c-45fa5e3731a5,39.860514,-75.1678,76.3,168,"Knox Lumber",Carpenter
Kathryn,K,Botts,"2142 Davis Place",Antwerp,45813,KathrynKBotts@fleckens.hu,419-258-7574,c710777a-73bf-485f-9fe1-48c89e71528d,41.077545,-84.730977,50.1,172,"Northern Star","Armored car guard"
Jeremy,V,McBride,"4077 Khale Street",Beaufort,29902,JeremyVMcBride@superrito.com,843-644-5857,434c4d79-7773-42a2-afe7-c8894ad8e169,32.413873,-80.602703,86.0,180,"Borders Books","Public affairs specialist"
Marilyn,J,Reed,"1390 Kuhl Avenue",Atlanta,30303,MarilynJReed@fleckens.hu,678-640-9163,c48e929c-45e6-42d8-a5bc-275be121a3ed,33.836176,-84.381748,80.2,163,"Boys Markets","Systems software engineer"
Dennis,E,Estes,"2291 Ashton Lane",Austin,78756,DennisEEstes@armyspy.com,512-467-7012,ee0be139-2b38-41a1-a4c3-9ebd3a9d36d9,30.29522,-97.752518,109.2,178,"Realty Zone","Social worker"
Harvey,S,Yocum,"4623 Lincoln Drive",Leola,17540,HarveySYocum@fleckens.hu,717-661-4012,587af7ce-c2f1-412d-b2f6-31f2a065c8c0,40.012766,-76.191983,114.5,175,"J. Riggings",Sailor
Susan,J,Longoria,"1531 Whispering Pines Circle",Irving,75039,SusanJLongoria@rhyta.com,972-401-7175,5c17da6e-5a8e-4f6b-8ffb-975c68951a0b,32.849002,-96.992756,59.6,153,Mikrotechnic,"Engraver set-up operator"
Aida,W,Dupree,"577 Dovetail Drive",Waukegan,60085,AidaWDupree@fleckens.hu,847-360-9414,11e4deaa-b04d-4eb4-90df-a66a738a5b12,42.324544,-87.953309,81.2,154,"Coon Chicken Inn","Osteopathic doctor"
Timothy,J,Braun,"255 Yorkie Lane",Savannah,31401,TimothyJBraun@gustr.com,912-947-1500,fd3015b1-ff4d-4fb4-b272-93f95fb209e0,32.167286,-81.146952,75.0,179,"Record Bar","Recruiting manager"
Tracy,S,Dawkins,"4789 Ferrell Street",Duluth,55811,TracySDawkins@armyspy.com,218-390-6139,7dd9ff13-f568-4d67-a306-f49899e5f8b4,46.924156,-92.27308,62.8,170,Anderson-Little,"Electronics technician"
Barbara,R,Rene,"182 Twin Oaks Drive","Grand Rapids",49503,BarbaraRRene@einrot.com,231-516-2200,b1918a7f-69c8-444e-92cd-df44b0a6e0c9,42.897125,-85.697708,90.2,155,"Gene Walter's Marketplace",Optometrist
Kristina,D,Rizzuto,"4324 Shearwood Forest Drive",Milford,03055,KristinaDRizzuto@teleworm.us,603-249-3290,4f04d6c2-9656-4072-a0b6-c56c2842d35f,42.850886,-71.598119,63.1,159,"Asian Fusion","Cable splicer"
Myrtie,H,Blackburn,"1601 Gregory Lane",Louisville,40205,MyrtieHBlackburn@teleworm.us,502-478-0635,054c7664-4d7a-4bf5-b5f0-c629acac297c,38.166166,-85.723199,61.7,162,"Funtown toys",Host
Connie,P,Henderson,"2534 Coulter Lane",Richmond,23233,ConniePHenderson@fleckens.hu,804-280-2294,addc1449-f98c-41eb-859a-ad3ac60ee80f,37.702935,-77.577157,67.0,170,"Realty Zone","Computer chip processor"
David,M,Byers,"2436 Masonic Drive",Powell,82435,DavidMByers@einrot.com,406-574-6714,e0df52b6-8852-4835-bb23-b495c318fb77,44.908619,-109.060637,101.7,190,"Forth & Towne","Landscape contractor"
Tracy,O,Rivera,"3028 Seltice Way",Eagle,83642,TracyORivera@jourrapide.com,208-740-0500,2c4a7552-0d4a-46ad-85b3-c82faba5c5da,43.755194,-116.340972,69.1,157,"Vinyl Fever",Telemarketer
Lowell,L,Peters,"3894 Maloy Court",Topeka,66608,LowellLPeters@teleworm.us,785-430-3037,38fcb9ba-3ce4-48be-ae30-97f31d4b7944,39.042265,-95.738762,100.9,165,"Atlas Architectural Designs",EMT
Jasmine,R,Lowe,"4907 College Avenue","Jackson Center",45334,JasmineRLowe@einrot.com,937-421-3466,afabc637-1dc5-4082-a4d0-a8f5fd04808b,40.4257,-84.003743,52.2,161,"Jackhammer Technologies","Able seaman"
Ruben,S,Smiley,"1184 Cost Avenue","Silver Spring",20910,RubenSSmiley@teleworm.us,301-457-0736,d71c0c70-54bb-418e-b35f-36d2a082a135,38.931005,-77.051885,97.8,164,"Young @ Heart","Personnel consultant"
Paul,D,Hecht,"1044 Duck Creek Road","San Bruno",94066,PaulDHecht@gustr.com,650-872-1083,be72d80e-61dc-43ef-b7fc-267e10e9cbfb,37.66813,-122.404577,84.7,177,"Henry's Hamburgers","Treatment plant and system operator"
Carol,W,Green,"2192 Pineview Drive",Okabena,56161,CarolWGreen@teleworm.us,507-853-0652,fbd523a1-3909-4e2d-a45b-6dab386dba28,43.693907,-95.30473,86.6,169,"Eagle Hardware & Garden","Wildlife biologist"
Floyd,M,Rines,"2942 Hardesty Street","North Greenbush",12144,FloydMRines@jourrapide.com,518-469-7416,1c4e26d9-8f41-473c-94e0-667ed2b7eff0,42.64895,-73.578238,96.8,185,"De Pinna","Landscaping worker"
John,K,Vaughn,"579 Cambridge Drive",Peoria,85382,JohnKVaughn@jourrapide.com,623-572-0024,1afcaa13-8cc0-4a62-8519-731d7a5b6046,33.646976,-112.24868,62.1,185,"Handy Dan","Grader operator"
Jessica,J,Wilson,"3260 Losh Lane",Pittsburgh,15236,JessicaJWilson@fleckens.hu,412-655-5922,1776005a-109a-4421-9c51-2703618aed96,40.333673,-79.99185,82.3,155,"Creative Wealth Management","Metallurgical engineer"
Phillip,V,Rouse,"2034 Tail Ends Road","Green Bay",54303,PhillipVRouse@cuvox.de,920-617-9014,c16c713d-ce60-4835-a780-177be48bc5e5,44.598103,-88.131232,73.6,182,"Dynatronics Accessories","Tile installer"
Rosa,M,Hood,"3568 Thompson Street","Los Angeles",90017,RosaMHood@jourrapide.com,562-678-0550,6d035d16-d7d5-4181-88b7-ef0ce80ab916,34.119808,-118.336804,73.3,164,"Red Fox Tavern","General practitioner"
Shawnta,A,Dinardo,"3005 Hamilton Drive","Ellicott City",21042,ShawntaADinardo@superrito.com,410-203-6909,16bc3451-f030-48ea-8fb0-c8219a37b437,39.359257,-76.84594,59.3,155,"Rivera Property Maintenance","Mechanical engineer"
Huey,M,Ruth,"3755 Saints Alley",Zephyrhills,33541,HueyMRuth@superrito.com,813-715-0360,40392ef5-db62-475e-a36e-40e266e21138,28.287653,-82.307606,101.8,182,Perisolution,"Oxy-gas cutter"
Helen,B,Myrick,"282 Veltri Drive",Kokhonak,99503,HelenBMyrick@dayrep.com,907-282-5362,b2d43292-3aa0-4146-a225-c05a754d39c7,59.472195,-154.856057,97.0,153,"Paper Cutter","Department manager"
Alma,J,Luce,"589 Simpson Street",Secor,61771,AlmaJLuce@superrito.com,309-744-3897,32554c35-e70e-4d33-a1cf-53f8bec7d222,40.632037,-89.049671,60.8,174,"Olson Electronics","Music instructor"
Gloria,H,Ross,"4694 Hinkle Deegan Lake Road",Allen,41601,GloriaHRoss@fleckens.hu,606-975-7291,ad95516c-329c-488c-9fad-5b45d87e1205,37.564951,-82.686825,60.5,166,"Knockout Kickboxing","Brake repairer"
Valerie,C,King,"2771 Allison Avenue",Norfolk,23502,ValerieCKing@einrot.com,757-537-0557,18bb4265-0fd2-40e0-bd98-b62cf6c0899d,36.79353,-76.301768,76.7,165,"Child World","Food and tobacco roasting, baking, and drying machine operator"
Charles,R,Simons,"3361 Pinnickinick Street",Bellingham,98225,CharlesRSimons@fleckens.hu,360-734-1511,cf6ca78a-5763-47f0-bbbb-a5fd33a144be,48.705175,-122.388435,103.5,177,"Leo's Stereo","Product designer"
Miriam,D,Rodriguez,"395 Jessie Street",Radnor,43066,MiriamDRodriguez@cuvox.de,740-595-9089,d7ffdf3b-343e-4e41-abb3-ca42a0cd314b,40.335525,-83.234485,64.1,167,"Audio Visions","Education planner"
Celia,K,Carlson,"4142 Dola Mine Road",Raleigh,27609,CeliaKCarlson@cuvox.de,919-412-6102,67f0beb8-054f-4ccd-80d9-93b9e7a443bb,35.912579,-78.599408,79.5,173,Monsource,"Ceramic engineer"
Nathan,T,Rodriguez,"3888 West Fork Drive","Fort Lauderdale",33308,NathanTRodriguez@einrot.com,954-507-0834,79020759-c9a6-4e69-93ae-64620850fdd2,26.251756,-80.112066,98.4,175,"Huffman and Boyle","Leasing consultant"
James,K,Fitzsimmons,"3321 Walton Street",Provo,84606,JamesKFitzsimmons@gustr.com,801-375-9215,1a697249-141c-4cb7-9ecb-25a556c6f680,40.189528,-111.646499,57.4,182,Monlinks,"Outdoor power equipment mechanic"
Charles,M,Begay,"1915 Don Jackson Lane",Honolulu,96826,CharlesMBegay@gustr.com,808-952-9215,ddf8e74c-4615-4e81-9403-6a20e9928354,21.252415,-157.860235,97.3,175,"Rack N Sack",Paperhanger
Charlie,E,Lopez,"3365 Steele Street",Chicago,60605,CharlieELopez@gustr.com,630-720-6738,4e05392f-8e03-410e-a511-749ab04b4eeb,41.930324,-87.664734,88.4,183,"Harvest Foods","Histology technician"
Alberta,N,Crank,"2456 Cerullo Road",Louisville,40299,AlbertaNCrank@armyspy.com,502-417-9057,34d4ea4b-6d87-45f1-a912-633360dbcfbd,38.225628,-85.463657,79.0,161,"National Record Mart","Postsecondary career-technical teacher"
Jennifer,A,Merchant,"1814 Illinois Avenue",Gresham,97030,JenniferAMerchant@gustr.com,503-669-9859,078284ee-8e15-4645-9518-d75211c5c21d,45.46021,-122.429319,66.2,165,"On Cue","Certified registered nurse anesthetist"
James,J,Clark,"1771 Hamilton Drive","Port Arthur",77640,JamesJClark@armyspy.com,409-971-8527,bf253046-e03d-42e7-9bcc-63703bc21de9,29.808568,-93.977841,108.1,175,"Whitlocks Auto Supply","Media specialist"
Oscar,S,McDonald,"1055 Simpson Square",Stillwater,74074,OscarSMcDonald@fleckens.hu,580-663-6871,03e8bfed-b9cc-4a88-a708-37ef146724c9,35.989479,-97.104329,91.3,178,"New World","CART provider"
Beverly,F,Green,"4827 Mandan Road",Sikeston,63801,BeverlyFGreen@dayrep.com,573-872-9193,af28ca77-9a9d-4142-9f30-d09da8103636,36.97713,-89.592674,96.9,165,"The Serendipity Dip","Cooking instructor"
Wanda,E,Flynn,"559 Wilmar Farm Road","Annapolis Junction",20701,WandaEFlynn@einrot.com,240-338-4444,237792f2-6312-4737-864a-f2838d546f6d,39.098678,-76.78565,85.0,168,"Asian Solutions","Bookmobile driver"
Mary,V,Smith,"3771 Boundary Street",Jacksonville,32202,MaryVSmith@cuvox.de,904-613-1918,84beca68-f12c-43ab-9491-12f6984eff16,30.406638,-81.679112,87.4,156,"Golf Augusta Pro Shops","Operations analyst"
Tina,J,McGinnis,"667 Burnside Court",Phoenix,85003,TinaJMcGinnis@cuvox.de,602-357-6383,fa4c7f8b-5e52-4294-bf6a-dfaee03217c2,33.478889,-112.096081,94.2,155,"Auto Palace","Mental health counselor"
Lisa,K,Rioux,"427 Harron Drive",Baltimore,21202,LisaKRioux@superrito.com,443-526-4981,b3c4ee1c-4751-45bc-904c-0ec67781a663,39.272207,-76.520354,92.3,163,"Action Auto","Lens grinder"
Annette,M,Scoles,"796 Broad Street",Brilliant,35548,AnnetteMScoles@dayrep.com,205-465-9723,3fd9c1f2-12d5-43ec-8162-e730dba2e4e9,34.091675,-87.681518,79.1,163,"Lindsley's Lumber","Palliative care nurse"
Gustavo,L,Shepherd,"4139 Delaware Avenue",Sausalito,94965,GustavoLShepherd@cuvox.de,415-332-1297,3628c5d1-9a2a-4857-9b85-bd03dd35db91,37.804038,-122.545857,71.7,168,Lazysize,"Time and attendance clerk"
Stephen,N,Snoddy,"2941 James Martin Circle",Columbus,43201,StephenNSnoddy@fleckens.hu,614-452-9315,65d1aa73-78dc-4172-940b-a7312f5c72a9,39.90326,-82.980638,95.9,176,"Hit or Miss","Electronic equipment installer"
James,M,Daniels,"1004 Briarwood Road",Fordland,65652,JamesMDaniels@fleckens.hu,417-767-1017,55be5f9e-84f3-40ba-8859-5d9d94aaef2f,37.053851,-92.916991,74.9,174,"Nutri G","Gynecology nurse"
Edward,K,Henry,"3654 C Street",Boston,02199,EdwardKHenry@armyspy.com,508-408-2707,1104d1ce-b19f-4ca3-80f1-570be560f096,42.367832,-71.046742,91.2,185,"Exact Realty","Recreational vehicle service technician"
Carol,T,Andersen,"2241 Carolyns Circle",Dallas,75248,CarolTAndersen@cuvox.de,214-704-3177,ce13b595-cd7d-4a6a-8a7b-9fe0920f21fd,32.947967,-96.824595,86.0,160,Newhair,"Professional sports scout"
Lawrence,J,Carter,"4619 Rubaiyat Road","Grand Rapids",49503,LawrenceJCarter@rhyta.com,231-672-5589,2f69e8a1-ac89-429e-b1d5-1500c08b69f8,42.907456,-85.749914,79.8,184,"K's Merchandise","Electromechanical equipment assembler"
Julie,E,Huey,"315 Sunny Day Drive",Tustin,92680,JulieEHuey@jourrapide.com,714-832-4774,da98dd47-1eea-40ee-ac6b-ec22c46dc639,33.719153,-117.798784,76.9,169,"Asian Fusion","Textile machine operator"
Sally,Q,Little,"1136 Lena Lane",Eddiceton,39634,SallyQLittle@rhyta.com,601-532-5582,9aa03974-1630-4661-bdc0-d37ef1a3e3e3,31.542605,-90.883282,70.1,153,Sportmart,Nutritionist
Robin,J,Hunt,"2139 Amethyst Drive",Lansing,48933,RobinJHunt@dayrep.com,517-281-6920,2457b128-3415-420b-96ae-99b600488b1d,42.825219,-84.649991,97.0,158,"Omni Tech",Applicator
Juan,A,Spencer,"2288 Bryan Street",Greensboro,27455,JuanASpencer@einrot.com,336-288-0953,99bd0f14-8d92-4ce4-bc50-03d117f47fdd,36.149818,-79.75915,67.6,166,Practi-Plan,"Telephone installer"
Bernard,I,Pelaez,"446 Rardin Drive","Santa Clara",95050,BernardIPelaez@gustr.com,650-683-5165,63235a10-ec6a-4f71-8c57-b6b77e981bbd,37.345332,-121.929808,69.0,177,Sandy's,"Occupational health and safety inspector"
Mary,M,Tuten,"4075 Custer Street",Smethport,16749,MaryMTuten@gustr.com,814-887-8731,214c265c-1d91-4c3c-b82c-188606e4017e,41.686348,-78.520471,99.0,151,Jafco,"Emergency care nurse"
Patrick,J,Beaver,"4668 Owen Lane","Fort Myers",33901,PatrickJBeaver@gustr.com,239-253-9935,b3849db1-c726-48e4-ae2f-0abfd5706115,26.623916,-81.88914,114.1,167,Maxi-Tech,"Marine surveyor"
Michael,M,Clark,"2905 Chatham Way",Frederick,21701,MichaelMClark@fleckens.hu,240-575-4065,8bcf4bc9-bbcf-4ce6-98d7-12a832303166,39.42268,-77.335772,68.9,168,Planetbiz,"Retail salesperson"
Earl,R,Taylor,"3567 Roguski Road",Shreveport,71101,EarlRTaylor@rhyta.com,318-267-0821,db5573a1-32b2-4119-9d61-2b36f2da36b4,32.579548,-93.669763,98.3,176,Erlebacher's,Paleomagnetist
Willie,J,Bates,"4306 Jehovah Drive",Roanoke,24019,WillieJBates@einrot.com,540-529-0815,88734a91-5ff2-4584-9390-076c1cb22fc6,37.41286,-79.993583,49.7,160,"Superior Interactive",Sampler
Jonathan,S,Grant,"3753 Lords Way",Brownsville,38012,JonathanSGrant@teleworm.us,731-772-1402,7a2bf207-21d6-4d17-b2f5-306ccddb6854,35.603393,-89.296263,87.7,178,"Miller & Rhoads","Retail salesperson"
Edythe,R,Heater,"4496 Honeysuckle Lane",Olympia,98501,EdytheRHeater@gustr.com,360-556-4079,8625a6b0-43bb-4571-8010-2a05bd15ab45,47.049564,-122.867414,98.1,168,"L' Fish","News camera operator"
Jack,D,Juan,"4634 Locust View Drive",Oakland,94612,JackDJuan@rhyta.com,415-907-9128,8008cf55-1f11-4320-9357-452146821340,37.795139,-122.234002,106.4,178,"De Pinna","Geophysical prospecting surveyor"
Robert,L,McGinty,"985 Ferry Street",Huntsville,35816,RobertLMcGinty@superrito.com,256-788-6971,3e7b7e22-03a3-43eb-9785-3b46b98e51ca,34.837579,-86.682062,94.2,175,"Food Mart","Professional athlete"
Mary,S,Betz,"2277 Coffman Alley",Elizabethtown,42701,MarySBetz@armyspy.com,270-734-0044,0232d95f-1611-4e90-b9be-bb3ccf3bad30,37.76929,-85.764975,77.7,168,"Success Is Yours","Hand sewer"
Chanel,D,Loughman,"2373 Shobe Lane","Glenwood Springs",81601,ChanelDLoughman@rhyta.com,970-384-2044,3f543cc4-d273-4e7f-8f5e-ab46f9c6b732,39.60902,-107.401083,75.5,161,"World of Fun","Real estate manager"
Randy,M,Jacobson,"3268 Hope Street",Portland,97230,RandyMJacobson@teleworm.us,971-678-6325,5fc8c5e4-1a54-419f-b7c5-2b229a5f291a,45.585276,-122.551851,78.4,169,"Glicks Furniture","LAN manager"
Leonard,L,Messer,"1641 Fleming Street",Montgomery,36109,LeonardLMesser@rhyta.com,334-409-3387,b45f361b-9897-4824-b237-a5375775eb42,32.33129,-86.1635,63.1,172,Marianne,Cabinetmaker
Melissa,J,Iles,"2070 Pyramid Valley Road",Oran,50664,MelissaJIles@jourrapide.com,319-638-4703,6bca2858-db90-44d8-b02e-a10838206cb3,42.713885,-91.855489,54.5,172,"Standard Food","Head cook"
Linda,N,Pratt,"4394 Desert Broom Court",Newark,07102,LindaNPratt@rhyta.com,201-719-8079,7d5e63e0-d61f-4c15-8f66-ede80d8389f0,40.8285,-74.205538,84.2,168,"Yesterday's Records","Dog trainer"
Gale,C,Serrano,"540 Nutters Barn Lane","Des Moines",50309,GaleCSerrano@rhyta.com,515-883-2291,a5d214fb-39cb-4110-abe8-48a7b301b070,41.582598,-93.668085,90.3,162,"Kash n' Karry","Plan examiner"
Jerold,A,Espinoza,"3396 Elliott Street","West Lebanon",03784,JeroldAEspinoza@gustr.com,603-530-4485,e7be9ad4-c5d8-46dc-99c4-dc9ed475a21c,43.587475,-72.309324,70.5,169,"Xray Eye & Vision Clinics","Power plant operator"
Benjamin,C,Smith,"2760 Oakdale Avenue","Avon Park",33825,BenjaminCSmith@armyspy.com,863-462-5552,66843b4b-ea98-4255-a56d-d17441de3c44,27.674391,-81.492369,78.1,178,"Wherehouse Music","Woodworking machine operator"
Ginger,M,Williams,"4577 Maple Court",Auxvasse,65231,GingerMWilliams@rhyta.com,573-386-4624,0ce83869-b27e-468a-a499-28b84a06c631,38.972668,-91.936692,98.8,152,"Reliable Guidance","Police dispatcher"
Larry,L,Wix,"1891 Tree Top Lane","Plymouth Meeting",19462,LarryLWix@cuvox.de,610-216-6945,b29a8641-c007-43ef-bdc1-bcfcc9052716,40.033748,-75.37578,73.8,178,"The Pink Pig Tavern","Physician assistant"
Patrick,M,Duran,"2444 Harrison Street","San Francisco",94107,PatrickMDuran@teleworm.us,415-496-9721,9d9bbfb8-c2a7-4af7-b98e-cea904ec8faa,37.765284,-122.446029,98.2,170,"Earl Abel's","Lathe and turning machine tool setter"
Joseph,M,Haslam,"3815 Geraldine Lane","New York",10013,JosephMHaslam@armyspy.com,646-327-9373,4e43f946-6d4a-425d-a17f-c0dd5f625cef,40.659947,-74.013389,71.9,185,"Golden Joy","Hospital attendant"
Johnathan,K,Dean,"4535 Perine Street",Centerville,22020,JohnathanKDean@cuvox.de,703-817-3361,34ac1ce4-ed2b-4aad-9f59-442ce06cd89f,37.737518,-75.605406,89.2,173,"Pro Garden Management","Gynecology nurse"
Frank,M,Rainwater,"2855 Brown Bear Drive",Riverside,92501,FrankMRainwater@gustr.com,951-686-1392,9778e5eb-f71d-467f-8cc1-8060afe9f0bd,33.938295,-117.386494,104.7,184,"Pro-Care Garden Maintenance","Coil winder"
Tia,J,Pilla,"3815 Terra Street",Poulsbo,98370,TiaJPilla@gustr.com,360-315-2398,0b5ef40b-f30a-42d7-9767-a8f38904e450,47.842307,-122.549559,71.6,166,"Farrell's Ice Cream Parlour","Private household cook"
Marc,E,Hardee,"1154 Martha Ellen Drive",Wells,89835,MarcEHardee@gustr.com,775-752-7868,53ecc78a-cc4c-4818-abd0-dceb49be6f47,41.302207,-114.887705,59.0,182,"ABC Markets","Nursing assistant"
Martha,D,Neal,"3159 Irving Road",Athens,45701,MarthaDNeal@jourrapide.com,740-541-7721,159bf73e-e1d0-4bf2-b631-027aef10820b,39.319479,-82.022615,71.8,169,Handyman,"Chemical engineer"
Earnest,R,McGuire,"2443 Elk Creek Road",Norcross,30071,EarnestRMcGuire@teleworm.us,770-525-9720,e66b7dee-b91a-4ec7-9ff3-88bde183546b,33.981288,-84.286468,101.3,168,"Total Quality","Bench carpenter"
Daniel,E,Heise,"3948 Barfield Lane",Indianapolis,46250,DanielEHeise@fleckens.hu,317-567-5011,25794edf-5e4a-40db-b349-6c44bbeefe47,39.889861,-85.975879,105.7,168,"Waccamaw's Homeplace",Locksmith
Arthur,C,Borman,"1493 Preston Street",Erie,66733,ArthurCBorman@cuvox.de,620-912-4021,cdb02ea3-c072-44f2-8338-00caee770517,37.699912,-95.196718,86.4,165,"Forum Cafeterias","Railroad engineer"
Nancy,F,Harper,"3946 Patterson Fork Road",Elmhurst,60126,NancyFHarper@jourrapide.com,312-656-8017,4a357805-dfbf-4260-8e50-2a67cd44245f,41.820661,-87.960765,69.8,150,"Tee Town","Promotions manager"
Vickie,R,Harris,"4957 Windy Ridge Road","Fort Wayne",46805,VickieRHarris@fleckens.hu,260-483-3237,52bc7af1-c85c-483c-8655-25f12d8b0bd9,41.118128,-85.14108,53.9,164,"Saturday Matinee","Engine and other machine assembler"
Emmanuel,H,Clark,"3675 Star Trek Drive",Pensacola,32505,EmmanuelHClark@fleckens.hu,850-324-9969,7a484389-a761-410f-b1ce-f4f058293669,30.538871,-87.302433,105.3,167,HouseWorks!,"Ticket agent"
Joe,J,Denham,"4105 Formula Lane","Mc Kinney",75069,JoeJDenham@gustr.com,469-742-9839,0712fdd1-9bb8-4c0b-ba5e-0e2e7d7597c9,33.281641,-96.613321,53.4,180,"Mr. Clark's Appliances","Respiratory care practitioner"
Tara,T,McMillan,"700 Del Dew Drive",Greenbelt,20770,TaraTMcMillan@gustr.com,301-910-6448,1a1d9ea7-deba-4fe0-bd5e-7e5c73d3b6b2,38.995182,-76.910688,65.4,166,Prestigabiz,"Vending machine technician"
Julianne,W,Yi,"1482 Williams Mine Road",Somerville,08876,JulianneWYi@superrito.com,908-218-9772,88cedbb7-a79f-4c93-8616-f8dca26603fa,40.64517,-74.777833,83.1,156,"Life Plan Counselling","Sales worker"
Carmen,J,Hicks,"4619 Maxwell Farm Road",Sacramento,95814,CarmenJHicks@gustr.com,530-948-9428,82d8826a-901a-4c35-ae13-ba80db55ed43,38.676822,-121.590992,78.6,153,Evans,"Employment, recruitment, and placement specialist"
Ida,P,Maynard,"3168 Brown Avenue",Harriman,37748,IdaPMaynard@gustr.com,865-224-0502,6210d693-ca9e-42de-abb6-460cf035b4eb,35.926053,-84.526989,54.4,165,"Sofa Express","Extruding and forming machine operator"
Kristin,C,White,"469 Central Avenue",Newark,07102,KristinCWhite@dayrep.com,201-351-7270,d9f875b1-99ce-47b7-8d4a-3af50fc3c0d9,40.64482,-74.109411,96.1,157,"The Flying Bear","Dental ceramist"
Kimberly,J,Fulbright,"2778 Rainbow Drive",Akron,44308,KimberlyJFulbright@dayrep.com,330-508-6825,dd38e337-113d-4cbd-865c-eb92843be25b,41.042877,-81.528235,48.9,163,"Western Auto","Bench jeweler"
Danelle,A,Clements,"3143 Blue Spruce Lane",Odenton,21113,DanelleAClements@rhyta.com,410-305-8516,695204ab-5524-4a0c-abfe-ff25fbd6f969,39.029837,-76.725606,97.8,159,"Asian Plan","Greenhouse worker"
Ashley,B,Jackson,"3601 Jones Avenue","Winston Salem",27101,AshleyBJackson@superrito.com,336-779-0138,46f14153-48ed-4254-9def-8cc9be45d75d,36.051597,-80.169441,78.2,162,"Purity Supreme",Zoologist
Maggie,J,Cooke,"2622 White Avenue","Corpus Christi",78476,MaggieJCooke@dayrep.com,361-738-3072,58aca888-a837-4d67-9321-47f4f048301d,27.722956,-97.503809,66.0,161,"Pender's Food Stores","Loan officer"
Martha,C,Key,"4680 Union Street",Seattle,98101,MarthaCKey@teleworm.us,206-779-4329,955bdd59-63e6-49b9-9163-ef339820776d,47.57355,-122.327237,66.2,160,"Jewel Mart","Desk clerk"
Mark,A,Hanson,"107 Park Avenue","Fair Oaks",95628,MarkAHanson@dayrep.com,916-537-5592,2e0dd510-d19f-4924-ad73-8b9ef44bc140,38.670599,-121.299643,94.5,175,"Lone Wolf Wealth Planning","Front office manager"
Leonard,C,Cooksey,"3776 Deer Haven Drive",Greenville,29615,LeonardCCooksey@rhyta.com,864-357-6058,cc25c643-aa95-4df8-a2ea-d7f350e9153f,34.908575,-82.300592,69.4,185,Mikrotechnic,"Fish trimmer"
Markus,A,Acevedo,"556 Eastland Avenue",Jackson,39211,MarkusAAcevedo@dayrep.com,601-345-3438,ab5c6145-8277-40a7-9c2d-cc20e644a614,32.379486,-90.102738,113.8,187,"Bold Ideas","Employee assistance plan manager"
Eunice,S,Politte,"4527 Platinum Drive",Canonsburg,15317,EuniceSPolitte@fleckens.hu,724-745-4207,d5e2a842-a704-4402-8740-8d6e229a86d3,40.359571,-80.267937,91.4,169,"Sun Television and Appliances","Personnel development specialist"
Estelle,R,Belcher,"506 Water Street",Fremont,94539,EstelleRBelcher@jourrapide.com,925-269-1130,ace241e0-1281-49f4-a95f-0c04faab40fc,37.594824,-121.870913,61.8,154,"System Star","Financial planner"
Annette,D,Gantt,"223 Eagle Lane","Cross Lake",56442,AnnetteDGantt@teleworm.us,218-692-8311,59262abd-42fd-4785-98ce-4aedbbb55f7e,46.743901,-93.99995,76.1,162,Heslop's,"Tool filer"
Sandra,L,Crozier,"2455 Green Avenue",Oakland,94612,SandraLCrozier@cuvox.de,510-839-1808,d7bb999b-92e1-4fbf-98a0-3de353ad4389,37.745017,-122.182498,56.1,164,"Foot Quarters","Registered nurse anesthetist"
Ruth,S,Carr,"871 Leroy Lane",Lexington,40505,RuthSCarr@gustr.com,606-212-1459,e3fe2e5a-a333-48e9-9b1d-9c38aad77fcb,38.150875,-84.489791,63.0,154,Multicerv,Commentator
Guillermo,M,Hahn,"4817 Davis Avenue",Fremont,94539,GuillermoMHahn@cuvox.de,707-671-5915,7a090cfb-cd6c-4180-8b35-d90847a5e8ee,37.532481,-121.853815,86.5,167,"Builders Square","Human resources director"
Jason,R,Kindle,"3262 Arbor Court",Baggs,82321,JasonRKindle@superrito.com,307-383-5908,eaf42440-90ee-494f-846f-da8ee02ddc39,41.071716,-107.649764,91.8,177,"Infinity Investment Plan",CPA
Minnie,K,Jones,"3933 Hood Avenue","San Diego",92123,MinnieKJones@superrito.com,858-643-0076,36961150-942b-4989-9584-75a41a6d876b,32.792148,-117.137991,62.3,157,"Modern Architecture Design",Secretary
Vickey,T,Galindo,"2814 Clinton Street","Little Rock",72210,VickeyTGalindo@cuvox.de,501-284-0593,145a0dcb-efec-4912-9501-2dd31a3dc6cb,34.753018,-92.557656,81.2,172,"Steve's Ice Cream","Loan authorizer"
Jack,L,Burnette,"2022 Conference Center Way",Alexandria,22306,JackLBurnette@armyspy.com,571-219-7698,5b8f320e-47d9-4b45-9c07-10a9ea7f56b7,38.775467,-77.068191,94.2,174,"Best Products","Corporate accountant"
Delana,D,Mancilla,"3924 Williams Avenue",Newhall,91321,DelanaDMancilla@rhyta.com,661-259-2947,127b9bf3-1342-481a-8cb7-9c8608f50601,34.278794,-118.419062,88.9,160,"K&G Distributors",Paperhanger
Daniel,M,Butts,"4097 Walton Street",Provo,84606,DanielMButts@dayrep.com,801-357-3920,c90a04f7-f50e-42c8-99f4-1bd601d16e68,40.140129,-111.552355,88.7,187,"Kelsey's Neighbourhood Bar & Grill","Cementing and gluing machine tender"
John,C,Fairbanks,"2578 Star Route",Schaumburg,60173,JohnCFairbanks@rhyta.com,708-648-2849,432ee54c-c8c7-4997-aba8-326fab491ada,41.979389,-88.118636,100.6,172,Widdmann,"Executive office administrator"
Emiko,R,Berry,"3231 Linda Street",Norristown,19403,EmikoRBerry@gustr.com,267-727-7175,a7903ef8-3dd5-401b-8918-0bf239f23fde,40.16042,-75.445074,69.2,171,"Afforda Merchant Services","Staff manager"
Tim,A,Duran,"3923 Stratford Drive",Kailua,96734,TimADuran@rhyta.com,808-257-9873,8634de29-c8be-488e-9497-de1ca0d10103,21.429069,-157.697099,79.1,165,"The Independent Planners",Paymaster
Michelle,J,Jones,"4411 Martha Street",Cottonwood,86326,MichelleJJones@cuvox.de,928-649-2071,b9110aa2-424a-4eea-ab01-89212a317b88,34.70738,-111.996824,61.2,164,"Circus World","Media director"
Michael,C,Green,"620 Dogwood Lane",Tucson,85701,MichaelCGreen@superrito.com,520-590-2626,714ccdbf-3d47-440c-ab92-51e56c3234f0,32.255816,-110.976591,91.0,178,"Bountiful Harvest Health Food Store","Local truck driver"
Steven,C,Webster,"3482 Goosetown Drive",Saluda,28773,StevenCWebster@teleworm.us,828-749-5809,ccb3be51-04bf-48c6-83c7-3b9dba77e916,35.2815,-82.281979,81.5,175,"Dun Rite Lawn Care","Vocational nurse"
Cynthia,J,Gonzalez,"4724 Mount Street",Saginaw,48607,CynthiaJGonzalez@einrot.com,989-583-2100,508ce200-c363-41f0-9fe4-f6b1e59cd139,43.415859,-83.841596,83.9,169,"Gas Depot","Cable splicer"
Mary,T,Evans,"1886 Ash Avenue",Manchester,63011,MaryTEvans@fleckens.hu,314-809-3103,5953ffab-cd6f-46ba-bf93-f7cca916ed3d,39.619954,-90.301273,93.3,164,"Tech Hifi",Dermatologist
Molly,S,Smith,"4263 Mulberry Avenue",Conway,72032,MollySSmith@cuvox.de,501-336-3826,77e701a9-e246-4d7e-b143-d94eea020290,35.146695,-92.480161,63.0,165,"Coast to Coast Hardware",Server
Howard,J,Hill,"2941 Buena Vista Avenue",Roseburg,97470,HowardJHill@jourrapide.com,541-673-2464,8a107881-5107-4049-84f5-ed289e85024e,43.250019,-123.491368,97.1,172,Bettendorf's,"Personal secretary"
Alicia,M,Carroll,"2607 Arron Smith Drive",Honolulu,96813,AliciaMCarroll@dayrep.com,808-531-5517,70039991-9257-4bc9-a6ac-cfe9d314b7bd,21.280181,-157.8103,71.2,154,"Levitz Furniture","Map editor"
Jean,D,Davis,"3378 Hurry Street",Purcellville,22132,JeanDDavis@superrito.com,540-338-5421,7e50cd78-94c0-4081-a1a7-884d0e8d3a95,39.212933,-77.713504,63.6,158,"Multi-Systems Merchant Services",Stevedore
Demetra,B,Billingsley,"4466 Riverwood Drive",Sacramento,95814,DemetraBBillingsley@jourrapide.com,530-421-0318,9a4c61cf-75e1-4607-88b2-445c3bf7ab10,38.543317,-121.427968,55.5,157,"McMahan's Furniture",Surgeons
Jonathan,S,Lien,"3839 Melm Street","Lake City",32055,JonathanSLien@dayrep.com,386-965-4470,178aa6bf-1b39-47a2-ac33-b03db2e67f28,30.199926,-82.535414,91.0,168,"Circus World","Real estate sales agent"
Eleanor,R,Jones,"4924 Hood Avenue","Rancho Sante Fe",92067,EleanorRJones@dayrep.com,858-759-8334,81113a81-34aa-4612-8618-cfbc3a6016be,32.939144,-117.249416,78.6,172,"Bountiful Harvest Health Food Store","Social scientist"
Robert,H,Yancy,"3097 Honeysuckle Lane",Seattle,98161,RobertHYancy@rhyta.com,360-535-7174,c191a92a-1c31-4edf-9a94-940530d8d188,47.383143,-121.810333,78.8,174,"Red Robin Stores","Poultry cutter"
Jack,F,Costa,"3571 Edwards Street",Columbia,27925,JackFCosta@einrot.com,252-766-3584,a349da02-e594-4e89-95bb-db49b8e245a3,35.748858,-76.254482,72.2,183,"Rivera Property Maintenance",Entomologist
Derrick,D,Batchelor,"2184 Kennedy Court",Bedford,01730,DerrickDBatchelor@cuvox.de,774-553-8938,ede7f4d1-e944-404e-9df8-9faa851e38e7,42.393264,-71.331817,109.0,183,Liberal,"Dance captain"
Jackeline,M,Stewart,"4984 Sundown Lane",Austin,78746,JackelineMStewart@jourrapide.com,512-328-7237,7763d5e7-c478-4bbd-be07-d2b711a9725d,30.233728,-97.805217,91.7,163,"Geri's Hamburgers","Benefits administrator"
Irene,E,Moeller,"1110 Hardesty Street",Albany,12207,IreneEMoeller@dayrep.com,518-488-7943,72edde80-c09f-42a7-8607-c019da78598e,42.613079,-73.82046,97.1,160,"National Tea","Lathe and turning machine tool setter"
Marla,D,Murphy,"4071 Desert Broom Court","Jersey City",07307,MarlaDMurphy@dayrep.com,201-685-5069,b2bff065-529d-4f0e-a824-661e52852027,40.795492,-73.97782,100.8,158,"Circus World","Urban and transportation geographer"
Catherine,H,Beaudry,"1692 Windy Ridge Road","Fort Wayne",46804,CatherineHBeaudry@cuvox.de,260-541-4726,478462b3-f050-4b42-aad7-754d6ef43ef4,41.113304,-85.244349,48.4,159,Beatties,"Civil engineering technician"
Linda,J,Perry,"2082 Oakmound Road",Chicago,60606,LindaJPerry@einrot.com,773-269-3803,eb4e6937-b87e-4f10-9b56-96a517725f08,41.963206,-87.629054,96.8,173,Lum's,"Textile knitting and weaving machine setter"
Nancy,J,Miller,"3992 Elkview Drive","Jensen Beach",33457,NancyJMiller@rhyta.com,772-229-3813,a3e83910-23b0-488c-812a-1aeea92d89c4,27.176552,-80.209352,66.5,167,"Sunburst Garden Management","Fire investigator"
Andra,R,Tyler,"4934 Quiet Valley Lane",Sunland,91040,AndraRTyler@cuvox.de,818-951-8240,00bff9fa-a992-4cbb-98a2-2f442540be17,34.31221,-118.276402,60.6,156,"Del Farm","Airframe mechanic"
Olga,J,Collins,"4918 Washburn Street","Baton Rouge",70802,OlgaJCollins@teleworm.us,225-376-7900,c9f49298-b186-476c-b6a7-3430863e73a0,30.478931,-91.125866,94.3,167,Maxi-Tech,"Tire changer"
Louis,J,Corley,"608 Hillcrest Avenue",Braintree,02184,LouisJCorley@gustr.com,781-849-4156,85d62e93-2379-4cfd-a6b1-8518a911849b,42.296832,-70.964869,97.0,177,"Asiatic Solutions","Employment counselor"
Aldo,F,Hutchinson,"2990 Williams Mine Road",Belleville,07109,AldoFHutchinson@teleworm.us,908-214-7144,d67c352a-9a93-4d8f-ba59-83cd142ac257,40.881608,-74.072296,70.1,173,"Handy City",Interpreter
Monica,C,Sharpe,"3597 Rhode Island Avenue",Washington,20004,MonicaCSharpe@gustr.com,202-324-8606,b79301f9-6483-4789-8918-9db173ea38af,38.812062,-76.981079,93.2,158,"Highland Appliance","Rail-track laying and maintenance equipment operator"
Aaron,C,Duran,"3450 Heavner Court","New York",10011,AaronCDuran@armyspy.com,516-283-7889,20e8a025-3abf-4de1-8f2c-ed1a29efdc98,40.712468,-74.036491,73.6,179,"System Star Solutions",Neurosonographer
Angela,A,Rubio,"3052 James Street",Rochester,14604,AngelaARubio@einrot.com,585-615-1622,2a75d99a-32cd-481d-8c9b-2c9fe61d338e,43.092038,-77.654055,106.2,159,Heilig-Meyers,"Public relations specialist"
Charles,B,Brown,"2305 Diamond Street",Sylva,28779,CharlesBBrown@armyspy.com,828-508-9998,a04c0368-b83c-4045-9c42-e7e9df1e7635,35.340829,-83.286532,60.7,168,Weathervane,"Vocational nurse"
Lillie,R,Keaton,"113 Sugar Camp Road","West Concord",55985,LillieRKeaton@dayrep.com,507-527-0225,a261fc66-2e2e-42cf-ad8c-557889f7eac4,44.152787,-92.947086,55.4,166,"Steak and Ale",Exterminator
Darlene,C,Paul,"828 Saint James Drive",Harrisburg,17101,DarleneCPaul@teleworm.us,717-424-4963,4d3433b5-d024-41e2-b9a6-eb2f0efce69f,40.180766,-76.918278,46.6,167,"System Star","Mechanical door repairer"
Caroline,K,Ferguson,"943 Nicholas Street",Salina,67401,CarolineKFerguson@teleworm.us,785-308-0642,39733075-7c99-4227-82c1-2e1543673220,38.921863,-97.665394,75.9,159,Lum's,Commissioner
Nancy,S,Bender,"4394 Happy Hollow Road",Fayetteville,28301,NancySBender@teleworm.us,910-609-0075,e65adbff-d8ba-47ca-8465-e8292c4414b9,35.016833,-78.641724,93.8,165,"Kelly and Cohen","Vocational education teacher"
Janice,L,Davis,"593 Corpening Drive",Southfield,48034,JaniceLDavis@teleworm.us,248-440-3431,33f53fe1-f3f4-41d5-ae33-2509d8fa2c15,42.468653,-83.341225,88.7,162,"Suadela Investment","Maintenance and repair worker"
Valerie,M,Watson,"3335 Godfrey Street",Hillsboro,97123,ValerieMWatson@superrito.com,503-628-7840,bf5d72c7-1dc9-4cfc-9679-f1ae6e4dca1d,45.452174,-122.99595,91.4,170,"Solution Answers","Public adjuster"
John,D,Redmond,"2802 Birch  Street","El Paso",79906,JohnDRedmond@dayrep.com,915-630-8305,f9d9d971-3ef2-43bf-aae6-7529186c20be,31.810833,-106.459048,93.0,173,"Olympic Sports",Recruiter
Carlton,W,Gutierrez,"3396 Bond Street",Providence,02905,CarltonWGutierrez@teleworm.us,401-831-3544,2f741f75-4754-497c-b85b-0bcd959aa821,41.810207,-71.310906,65.8,176,"Golden Dawn","Contract specialist"
Odessa,N,Jones,"4310 Davis Lane",Boulder,80302,OdessaNJones@armyspy.com,720-406-9328,06b41a94-0039-4188-89cb-633c14c3ee5d,39.966676,-105.449534,55.3,158,"The Original House of Pies","Route driver"
Bobbie,T,Schwarz,"3862 Howard Street","Grand Rapids",49503,BobbieTSchwarz@fleckens.hu,616-472-1562,62cc6935-5fd9-4c15-843c-466bf8feabbb,42.877274,-85.664579,71.3,156,"Super Shops","Construction equipment operator"
Michelle,M,Crane,"2932 School House Road",Union,39365,MichelleMCrane@jourrapide.com,601-774-9834,9cf81d88-ff17-4c5b-a6c5-40321e239a68,32.521667,-89.198216,48.5,159,"Body Toning","Office support secretary"
Lillian,C,Lawson,"232 Creekside Lane",Ojai,93023,LillianCLawson@superrito.com,805-646-8582,0e0bddde-951c-4bcf-bf24-acff953cfbe1,34.484455,-119.211958,72.1,154,"White Coffee Pot","Grinding and polishing worker"
Joe,B,Cunningham,"3150 Rose Street",Westchester,60154,JoeBCunningham@rhyta.com,708-266-0705,0c3a8c3f-90e0-4bdc-9cfd-cee21d8812cc,41.909565,-87.882104,87.6,176,"Sew-Fro Fabrics","Immunohematology technologist"
Brad,J,Robertson,"4537 Progress Way",Minneapolis,55401,BradJRobertson@einrot.com,320-215-1825,338412e2-8cba-4b71-9c13-6529009a7b7f,45.078943,-93.243527,83.7,178,Mages,"Electronic technician"
Mirna,D,Taylor,"897 Ashwood Drive",Ayrshire,50515,MirnaDTaylor@armyspy.com,712-426-9598,db058897-9e0e-4245-ad4d-cc1f5ea80472,42.946447,-94.848972,63.1,160,"House Of Denmark","Labor contractor"
Fred,L,Jones,"895 Sycamore Road","Fort Klamath",97626,FredLJones@fleckens.hu,541-381-3748,a15d14b8-d3ce-42db-9e78-4ed96d750790,42.789189,-122.027661,83.1,177,"Big Daddy's Restaurants","Instructional materials director"
Jorge,B,Hayes,"816 Terry Lane",Orlando,32801,JorgeBHayes@armyspy.com,321-282-3090,c613a224-ed95-4910-83f4-8d1900810ace,28.446287,-81.381964,110.6,171,"Music Boutique","Education and training manager"
Emily,R,Brooking,"3797 Chapel Street","Sugar Land",77478,EmilyRBrooking@fleckens.hu,281-613-6327,9badce90-db3a-41f5-a053-86b130537a67,29.712383,-95.565124,90.7,162,"Monk Home Improvements","Credit checker"
Edie,B,Brandon,"296 Sand Fork Road","New Paris",46553,EdieBBrandon@cuvox.de,574-831-5362,0c65e3ea-8352-445b-b555-0e6c3e60f1da,41.38376,-85.850484,81.6,169,"Little Folk Shops","Golf course architect"
Clayton,M,Wyatt,"3633 Skips Lane",Flagstaff,86004,ClaytonMWyatt@dayrep.com,928-522-6792,dd393d3b-43f4-43fc-970d-551bac7a1adc,35.351478,-111.39777,73.6,172,"Steve & Barry's",Paraprofessional
Kym,D,Craddock,"1595 Beech Street","San Ramon",94583,KymDCraddock@dayrep.com,925-866-9368,1d8d2f6d-e682-43d4-b13a-ef2fc634f693,37.870771,-122.009088,74.9,152,"Courtesy Hardware Store","Nursery and greenhouse manager"
John,P,Anderson,"1964 Upland Avenue",Willard,44890,JohnPAnderson@gustr.com,419-933-7114,6e7f022f-ac03-4c6a-9560-75ec36edc9e5,41.143789,-82.680819,104.6,169,"Oranges Records & Tapes","Medical records technician"
Olivia,J,Walsh,"4224 Langtown Road","Des Moines",50309,OliviaJWalsh@armyspy.com,563-976-9366,b055b8fc-97d5-4784-bd3f-724128e868b4,41.577078,-93.623928,99.2,152,Furrow's,"Shuttle car operator"
Quintin,M,Carlisle,"1881 Bridge Avenue",Kinder,70648,QuintinMCarlisle@cuvox.de,337-738-9979,617d00a5-eade-468c-a741-9068a760c622,30.535623,-92.860522,83.3,169,"Sunny's Surplus","Teacher aide"
Marsha,F,Dejesus,"2872 Dovetail Estates",Tyrone,73951,MarshaFDejesus@rhyta.com,580-854-5912,0ed004a1-9e64-491f-8ce6-5854713cb2da,36.927088,-101.049066,101.5,157,"Sofa Express","Occupational therapist"
Lori,N,Renn,"745 Hickory Heights Drive",Laurel,20707,LoriNRenn@superrito.com,443-870-5774,b6f12b11-9aa7-44b4-b47c-ad77e33eaa0a,39.119691,-76.937103,97.2,156,"I. Magnin","Electrical power line installer"
Keith,C,Stalvey,"1142 Simpson Avenue",York,17401,KeithCStalvey@rhyta.com,717-852-0259,254e87d9-bc2d-4d84-9cc9-f1cd6732f793,39.880914,-76.684881,66.6,187,"Big Wheel","Communications specialist"
Janice,E,Campbell,"650 Progress Way","Cedar Rapids",52404,JaniceECampbell@teleworm.us,319-821-6664,c5b88beb-40cb-4be8-a7b3-fb892ec75711,41.909537,-91.712377,97.9,167,"Rhodes Furniture","Television announcer"
Loida,J,Brooks,"2750 Murry Street","Virginia Beach",23451,LoidaJBrooks@armyspy.com,757-433-9319,9e74b928-2816-4fda-9057-add530154a5f,36.913977,-75.917412,53.4,168,Choices,"Assistant manager"
Victoria,D,Savage,"2233 Hillcrest Lane","El Toro",92630,VictoriaDSavage@superrito.com,949-830-6280,d0a6d043-438a-4539-9ed8-7b28f0eff444,33.531127,-117.739611,78.3,172,"Maurice The Pants Man","Conservation scientist"
Curtis,J,Morrisey,"4235 Hillcrest Circle","Maple Plain",55359,CurtisJMorrisey@teleworm.us,763-479-5957,2d432798-e994-42b0-97ca-9c2d15d38df4,45.026485,-93.714745,100.8,165,"Asiatic Solutions","Grounds maintenance worker"
James,L,Baney,"536 Sunburst Drive","Fort Myers",33912,JamesLBaney@einrot.com,239-404-0774,f3707b09-dadc-4de6-a683-9ccdc25aa5f9,26.583127,-81.875108,94.4,187,Loblaws,"Assistant manager"
Annette,G,Phillips,"3039 Pooz Street","New Brunswick",08901,AnnetteGPhillips@jourrapide.com,732-214-1705,699d0057-d0d3-4ff2-ace0-9cbe2a3b4638,40.384085,-74.413371,84.6,171,Schweggmanns,"News reporter"
David,A,Foreman,"3303 Henry Ford Avenue",Tulsa,74133,DavidAForeman@fleckens.hu,918-254-1373,422ef772-c955-469d-ad64-cce7bc3f1ab4,36.122055,-95.89699,65.3,181,"Matrix Architectural Service","Inorganic chemist"
Nancy,M,Stockard,"2593 Clair Street",Hillsboro,76645,NancyMStockard@rhyta.com,254-580-0606,c73ca030-8401-47bd-b87e-09f101003d94,32.0544,-97.132959,82.3,161,"Franklin Music","Forest, conservation, and logging worker"
Christopher,M,Gerlach,"1839 Ferguson Street",Worcester,01608,ChristopherMGerlach@rhyta.com,508-468-4330,8d83730d-b137-4b78-93dc-cb4d8c12259e,42.190977,-71.805304,91.1,164,"Wilson's Jewelers",Physicist
Arnulfo,A,Mask,"2553 Worthington Drive",Dallas,75201,ArnulfoAMask@gustr.com,972-616-5759,de909575-fe44-459b-9f57-c819a45c61c4,32.861597,-96.779686,87.5,171,"Strength Gurus","Perioperative nurse"
Grace,R,Sherlock,"218 Lake Forest Drive","West Nyack",10994,GraceRSherlock@einrot.com,914-261-0939,5946961f-0cc6-4cc3-85d1-d223df998f85,41.00824,-73.987915,100.8,159,"Strategy Consulting","Cleaning, washing, and metal pickling equipment tender"
Curtis,H,Edgerton,"922 Buckhannan Avenue",Syracuse,13202,CurtisHEdgerton@armyspy.com,315-499-8167,4f50f7bb-00cb-4ea5-8467-a5434ea60aae,42.977237,-76.240611,103.2,171,Bettendorf's,"Child care worker"
Joseph,J,Valdes,"1462 White Lane","Fort Smith",72908,JosephJValdes@einrot.com,479-207-4806,a691c098-cbe6-4724-aff2-ec8125c7ddcb,35.369917,-94.384044,105.9,180,"Source Club","Personal banker"
Reginald,C,Wojtowicz,"2907 Layman Court",Atlanta,30303,ReginaldCWojtowicz@teleworm.us,678-343-5175,e152c6c1-e5f9-41a7-a9f2-ca3d166a386a,33.654272,-84.301338,81.9,183,"Locost Accessories","Fabric and apparel patternmaker"
John,C,Smith,"3748 Hickory Lane",Beltsville,20705,JohnCSmith@fleckens.hu,202-465-0740,4f672934-f8ac-4562-aa12-535cf65984ba,39.146961,-76.945194,96.0,177,"Food Mart","Audio control engineer"
James,F,White,"359 Graystone Lakes",Byromville,31007,JamesFWhite@cuvox.de,478-433-4855,0948a5d7-d604-4999-884c-964afe71e635,32.199057,-83.922647,63.5,173,"Specific Appraisals","Metallurgical engineer"
Matthew,S,Pharr,"3641 Coulter Lane",Richmond,23222,MatthewSPharr@superrito.com,804-314-3348,4d347161-49d2-4020-8235-f83749d6a90e,37.502265,-77.451124,102.4,169,"Magna Wealth","Veterinary technician"
Darlene,J,Perez,"2016 Spring Avenue","Fort Washington",19034,DarleneJPerez@armyspy.com,267-661-2791,c59d0435-6730-4cb8-a6d6-adc4153c197e,40.16487,-75.234774,70.9,159,Marianne,"Marketing research analyst"
Gary,D,Cardwell,"296 Harley Brook Lane",Roulette,16746,GaryDCardwell@gustr.com,814-544-5983,8f232b6d-78a6-4b73-bc4a-7ede235991ce,41.87619,-78.196526,69.8,169,"Liberty Wealth Planner","Graduate teaching assistant"
Jennifer,M,Robinson,"4837 Rubaiyat Road","Traverse City",49684,JenniferMRobinson@dayrep.com,231-735-1933,50d56d65-d268-4d3c-b552-44fd78ec0a79,44.830015,-85.700609,61.9,164,"National Auto Parts",Interviewer
Walter,M,Mendieta,"797 Ritter Street",Decatur,35601,WalterMMendieta@fleckens.hu,256-303-7529,c6adcf96-c47d-4013-8c2b-3d85a4fd5c3c,34.607177,-87.088938,90.1,182,"Custom Lawn Care","Weather forecaster"
Ashlie,L,Morales,"4313 Hart Street",Portland,06480,AshlieLMorales@armyspy.com,860-342-5107,5e02339e-c887-4483-8d66-8dbf567ca108,41.54283,-72.667326,103.4,168,"Shoe Pavilion","Travel consultant"
Kelly,S,Bryant,"2136 Cottrill Lane",Manchester,63011,KellySBryant@superrito.com,314-406-8300,b2a2f042-bd78-4659-aa95-8a083fd4ce81,39.547707,-90.293201,67.2,169,"Bodega Club","Registered respiratory therapist"
Mike,H,Nelson,"2785 Hickory Street","Salt Lake City",84111,MikeHNelson@fleckens.hu,801-790-9919,ac5f22ba-1193-4c7e-9870-d3d622470dfb,40.7631,-111.797378,83.8,178,"Kids Mart","Credit counselor"
Robert,S,Fisher,"2500 Terry Lane",Longwood,32750,RobertSFisher@jourrapide.com,321-302-6409,a9700adf-167b-4ae8-b9fd-f33bb51140f5,28.714212,-81.401009,106.6,184,"Wholesale Club, Inc.","Delivery service driver"
Frances,J,Cullins,"4587 Terra Street",Silverdale,98383,FrancesJCullins@gustr.com,360-307-4152,f6344e27-6997-491b-919f-9f1e2a754b31,47.762395,-122.703484,66.2,166,"Tech Hifi","Ophthalmic nurse"
Jessica,J,Miller,"3896 Hanifan Lane",Norcross,30071,JessicaJMiller@fleckens.hu,678-503-6780,c5be1bd2-bab5-47a1-8076-1e7cdf90819f,33.855321,-84.122651,78.3,170,Brendle's,"Floor sander"
George,S,Coster,"2461 Bombardier Way",Southfield,48075,GeorgeSCoster@fleckens.hu,734-907-2221,020dd73e-5582-45d3-9815-a41fbb073085,42.394174,-83.16167,94.7,180,Adaptabiz,"Relay technician"
Maria,W,Dorfman,"1338 Leverton Cove Road",Agawam,01001,MariaWDorfman@superrito.com,413-335-8563,0f27fe21-bb46-4871-9846-f7275fb6f23e,42.040387,-72.554475,55.5,161,"Schaak Electronics","Civil service clerk"
Mary,C,Henning,"463 Stoney Lonesome Road",Pottsville,17901,MaryCHenning@fleckens.hu,570-318-9255,17597b39-6411-4620-8ca7-80663ff64ba4,40.711481,-76.1718,87.1,170,"Spaceage Stereo","Health information technician"
Tracy,A,Walker,"2320 Kennedy Court",Taunton,02780,TracyAWalker@cuvox.de,774-266-3885,7ce58528-acaf-44a5-a95b-76581c2262cd,41.828569,-71.184125,93.9,168,Multicerv,"Clinical manager"
Annette,J,Warren,"939 Parkview Drive",Houston,77032,AnnetteJWarren@jourrapide.com,713-992-9169,62dbdb95-6c5e-43fe-90c9-e71d65114a02,29.867412,-95.278065,96.8,155,"Gart Sports",Sorter
Manual,F,Gettys,"4465 Lindale Avenue","Union City",94587,ManualFGettys@gustr.com,510-487-6118,4f562106-40ba-4cba-a1c0-266f286f0eb2,37.547039,-122.019404,100.8,183,"Infinite Wealth Planners","Animal control worker"
Bridgette,J,Davis,"4885 Trainer Avenue",Bloomington,61701,BridgetteJDavis@armyspy.com,309-504-2852,f6fd7d45-f078-43bc-8996-bfecff5dc825,40.542076,-88.900427,89.2,171,LaBelle's,"Urban and transportation geographer"
Carol,H,Barnett,"870 County Line Road","New Port Richey",34652,CarolHBarnett@cuvox.de,727-846-3898,c9437e48-580a-424b-aa31-9db528427729,28.146593,-82.759069,76.9,172,"Integra Wealth","Wealth manager"
Robert,B,Paul,"427 Quiet Valley Lane","Los Angeles",90017,RobertBPaul@rhyta.com,818-925-4784,d4dfcbed-2b62-43e3-b9aa-f579088205c3,34.131756,-118.185577,60.1,168,Sampson's,"Charter bus driver"
Christina,B,Nguyen,"3561 Cliffside Drive",Syracuse,13204,ChristinaBNguyen@superrito.com,607-327-7065,28361791-96d9-415b-8137-55fd74061dc6,43.136126,-76.235943,78.5,162,Sportswest,"Scanner operator"
Vallie,W,Rhyne,"3648 Allison Avenue",Norfolk,23503,VallieWRhyne@rhyta.com,757-531-6955,ee6d28f0-8608-4b2d-876c-5143ae53db77,36.991284,-76.263916,78.0,161,"Licorice Pizza","Fiscal and policy analyst"
Karen,D,Horgan,"3469 Haven Lane",Dansville,48819,KarenDHorgan@teleworm.us,517-623-9765,5aeeced6-de71-4e36-9898-017d03ad86ec,42.477293,-84.243674,82.7,158,"Avant Garde Interior Designs","Multiple machine tool tender"
Cora,K,Collins,"3405 Emma Street",Pampa,79065,CoraKCollins@teleworm.us,806-896-5230,2e0a2cdd-9eed-4da9-8538-83d9fcd3c99b,35.586614,-100.944926,64.1,156,"Fragrant Flower Lawn Services","Foot doctor"
Juanita,R,Romero,"3094 Richison Drive",Billings,59101,JuanitaRRomero@jourrapide.com,406-248-6216,d1dcdb88-b25b-42d2-adc4-89d67448b88e,45.710185,-108.291648,95.7,166,"Full Color","Plant custodian"
Larry,J,Cromer,"2009 Alexander Drive",Denton,76201,LarryJCromer@fleckens.hu,940-320-9152,8cfa3e8c-7d50-41e3-8283-6dab4e50bc70,33.286475,-97.061863,74.4,177,"Team Electronics","Fire investigator"
John,C,Ralph,"2759 Carolina Avenue",Mcallen,78501,JohnCRalph@dayrep.com,956-972-4038,ac3aee3a-af88-432c-82b3-b50e3f4a648f,26.265839,-98.197088,109.4,172,Burstein-Applebee,"Respiratory care practitioner"
Christopher,V,Burton,"2341 Clair Street",Waco,76706,ChristopherVBurton@fleckens.hu,254-716-7665,1c50f6b6-9132-415b-a009-3723213a16e0,31.556078,-97.138227,111.5,180,"Star Merchant Services","Image designer"
Dan,J,Bernardo,"431 Oakway Lane","Van Nuys",91405,DanJBernardo@jourrapide.com,818-267-1816,79e7ff68-a476-4e06-99ba-bfba0b50c579,34.274935,-118.500664,79.1,175,Warshal's,"Licensed clinical social worker"
John,D,Person,"3710 Beechwood Drive",Pittsburgh,15222,JohnDPerson@fleckens.hu,412-260-4356,e50cf9a7-acd8-4807-b3f2-042bff3885cb,40.540077,-80.041352,79.6,173,"Omni Superstore","Social science research assistant"
Hazel,H,Bradshaw,"4035 Smith Street",Bedford,01730,HazelHBradshaw@dayrep.com,508-817-2092,01469218-0930-400b-9051-3c14fde8a2cf,42.540957,-71.345661,99.4,170,"The Record Shops at TSS","Spray machine operator"
Julie,C,Rivera,"2622 Hillcrest Avenue",Cambridge,02141,JulieCRivera@dayrep.com,781-870-6709,92301333-fb94-4549-a2d7-b86f6ffba055,42.290917,-70.98122,56.6,155,Judy's,"Nurse specialist"
Eugene,S,Mackey,"3849 Hall Street","Las Vegas",89121,EugeneSMackey@superrito.com,702-451-0482,0534844d-8d96-4091-8ec7-75cd09b88ae0,36.066235,-115.119162,101.2,189,Zantigo,"Sales worker driver"
Vivian,R,Robertson,"4178 Matthews Street","Stillman Valley",61084,VivianRRobertson@dayrep.com,815-645-8458,c1e3cbb0-2492-4800-92c3-e9b0840f1d7c,42.133466,-89.169679,84.9,161,"Farmer Jack","Commission clerk"
Julia,L,Mendez,"1703 Burnside Avenue","Park City",84060,JuliaLMendez@cuvox.de,435-659-2884,0dd65be1-c898-42d3-8f52-60e0bc1567a8,40.714,-111.511622,97.0,163,"Integra Design","Real estate closer"
Eric,T,Ornelas,"2881 Golden Ridge Road",Schenectady,12305,EricTOrnelas@cuvox.de,518-377-6585,7f7a4316-d765-4d2c-82e9-73fb8df235ee,42.856018,-73.856261,86.9,182,"Champion Auto","Medical geographer"
Henry,R,Scarborough,"2583 Carter Street",Belleville,62220,HenryRScarborough@gustr.com,618-844-7693,5e7ff2da-0b50-4f79-b172-e3cb245980c5,38.48289,-90.057089,90.1,178,"Great Clothes","Teacher assistant"
Garrett,V,Chism,"2135 Paradise Lane","San Bernardino",92401,GarrettVChism@gustr.com,909-771-6514,593cb4cb-16e4-4539-be02-4eb6e83da828,34.119724,-117.230522,86.0,184,"Zephyr Investments","Technical writer"
Ivan,M,Bush,"4559 Wilson Avenue",Richardson,75081,IvanMBush@jourrapide.com,972-538-0832,36376da8-ffe9-43b2-b6f9-3255d10c7bd1,32.978481,-96.696969,108.9,186,Angel's,"Registered respiratory therapist"
Donald,I,Tenney,"728 Glory Road","Mc Minnville",37110,DonaldITenney@rhyta.com,931-815-4197,c325c658-dfcc-442c-b5c4-780d6b08b43f,35.665386,-85.693721,81.6,176,"Harmony House",Director
James,F,Coldwell,"4226 Snyder Avenue",Salisbury,28144,JamesFColdwell@cuvox.de,704-630-6497,2fa0510e-3bfa-4f85-945d-7ce59c9ba5ad,35.765853,-80.446875,74.3,175,"Little Folk Shops","Metal pourer"
Jonathan,M,Taylor,"1907 Walnut Street",Vicksburg,39180,JonathanMTaylor@teleworm.us,601-630-1829,dd4141ce-1426-4486-b7f9-779f001d9690,32.16965,-90.763226,67.2,186,Afterthoughts,"Home inspector"
Francis,M,Lewis,"3417 Hanifan Lane",Marietta,30067,FrancisMLewis@einrot.com,678-589-0561,4411847d-fe5e-4dc5-b304-4277a8ae2048,33.908464,-84.425037,65.6,174,"Geri's Hamburgers","Professional property manager"
Barney,E,Farnham,"617 Clarksburg Park Road",Scottsdale,85256,BarneyEFarnham@dayrep.com,928-433-8240,265a859b-6e3f-471c-952d-572faaa24d1f,33.501294,-111.825926,81.7,184,"Brilliant Home Designs","Interior designer"
Donna,T,Rhoton,"1697 Maple Avenue",Stockton,95204,DonnaTRhoton@fleckens.hu,209-213-4632,915d58ab-ebf2-4205-9e01-0a541044b9d8,37.948845,-121.393207,91.1,165,Excella,"Executive secretary"
Amber,J,Witkowski,"2209 Park Street","San Francisco",94107,AmberJWitkowski@gustr.com,925-404-4950,a1c63224-470c-4e78-b7cd-88f95d8ee490,37.70446,-122.377022,78.7,170,"Henry's Hamburgers","Sports competitor"
Marcia,M,Kraus,"4723 Bombardier Way","Farmington Hills",48335,MarciaMKraus@rhyta.com,734-872-7265,08b60aab-07e3-4a76-9822-adc07e49ffbb,42.53448,-83.41517,77.1,161,"Morrie Mages","Recreation supervisor"
Patti,A,Sievers,"2581 Davis Place",Maumee,43537,PattiASievers@superrito.com,419-277-3394,78cce647-a3a9-4c79-8774-4b09f9b25cde,41.626693,-83.737401,73.7,159,"Solution Answers","Small engine service technician"
Aaron,K,Conner,"1844 Travis Street",Stuart,34994,AaronKConner@jourrapide.com,772-692-2019,7b3f7cb3-2849-41f1-921e-4f79e3e558d1,27.110444,-80.238081,98.6,175,"Sew-Fro Fabrics","Facilities coordinator"
Denise,D,Witte,"1070 Morningview Lane",Union,50258,DeniseDWitte@cuvox.de,641-939-1507,035b131d-84e1-4e9f-84ac-cd81f9d48b3e,42.147311,-93.034559,57.2,154,"Specialty Restaurant Group","News analyst"
Judith,M,Jean,"3218 Larry Street",Novato,94947,JudithMJean@teleworm.us,415-209-3270,b1308f7c-6448-4b93-a193-d06d28b2cfbb,38.160015,-122.578059,65.3,165,Stratapro,"Training administrator"
Carol,G,Chancey,"203 Sun Valley Road",Spokane,99201,CarolGChancey@fleckens.hu,509-855-1798,3700d795-e47b-4b27-a7d7-38354bf84403,47.693271,-117.351944,74.6,164,"The Pink Pig Tavern",Agronomist
Megan,S,Clark,"4749 Reynolds Alley","Los Angeles",90017,MeganSClark@fleckens.hu,562-289-5056,6e9735d9-93dc-415d-a79e-ef2a73d8817b,34.135637,-118.192235,83.5,175,"Suncoast Video",Administrator
James,B,Richter,"4678 Paul Wayne Haggerty Road","New Orleans",70112,JamesBRichter@einrot.com,504-424-5325,fb63b711-1e0d-4695-80c7-cdacc71d802f,30.01026,-90.141872,94.5,176,"Little Folk Shops","Admitting interviewer"
Laurie,J,Anderson,"358 Hickory Heights Drive",Hanover,21076,LaurieJAnderson@fleckens.hu,443-848-7398,038e7600-969d-42ff-91fa-e5a66236dbc9,39.106217,-76.763657,93.4,161,"Asian Answers","Banquet manager"
Janet,J,Nixon,"4752 Pinchelone Street",Norfolk,23502,JanetJNixon@rhyta.com,757-291-5106,5066b1fa-ccef-41dc-9caf-5b873952abc7,36.840855,-76.309271,60.4,153,Packer,"Water transportation occupation"
Jerry,M,Axtell,"4663 Sugar Camp Road",Mankato,56001,JerryMAxtell@superrito.com,507-625-3259,6362c396-0f39-46d0-92ae-e07c6b09e510,44.137521,-93.966559,75.6,175,Megatronic,"Operations director"
Carmen,G,Brown,"129 Primrose Lane",Madison,53718,CarmenGBrown@fleckens.hu,608-548-2207,ca3b000c-dcec-4c2f-8ec6-4fd05be89301,43.100826,-89.176857,64.5,165,"Argus Tapes & Records","Music instructor"
Susan,M,Harris,"7 Bruce Street","Saint Louis",63108,SusanMHarris@rhyta.com,314-367-8886,9d657c21-0c5c-4210-8fc2-fa07f1abf1a2,38.570227,-90.163387,75.0,171,"Old America Stores","Appliance repairer"
Cynthia,P,Phillips,"3354 Gandy Street","Saint Louis",63101,CynthiaPPhillips@teleworm.us,314-969-9749,e00a6ee1-a43e-4798-b3ba-f2fd20cf33d7,38.709883,-90.29152,54.4,152,Nedick's,"Skills training coordinator"
Danielle,D,Jefferson,"4543 Arthur Avenue",Marseilles,61341,DanielleDJefferson@dayrep.com,815-795-0024,74a70e14-49c5-4f76-8c5f-bb0a1075727c,41.354886,-88.713369,69.6,156,"Creative Wealth","Telecommunications equipment installer"
Jessica,J,Kent,"3624 Gorby Lane",Jackson,39201,JessicaJKent@rhyta.com,601-265-1034,5ffc658b-c90c-44b1-82be-5573c7952b71,32.345449,-90.263002,80.0,162,"Realty Solution","Postsecondary vocational-technical education teacher"
Cordelia,J,Myers,"1585 Lunetta Street",Seymour,76380,CordeliaJMyers@cuvox.de,940-996-7764,13ef9b9f-650e-4f08-901f-ad6fa02b048b,33.692369,-99.236117,104.0,163,"House of Gas","Home health nurse"
Kevin,R,Leedom,"3311 Yorkie Lane",Savannah,31401,KevinRLeedom@superrito.com,912-721-3940,bd914949-c884-4228-8fef-d608330b2f64,32.081314,-81.026448,77.0,184,"Circuit Design","Sales engineer"
Peter,G,Morgan,"1536 Brentwood Drive",Lampasas,76550,PeterGMorgan@armyspy.com,512-734-3716,791141d1-e929-4e0b-80eb-c0274a505129,31.17783,-98.283886,94.6,176,"The Independent Planners","Kennel attendant"
Edward,C,Solis,"790 West Side Avenue",Newark,07102,EdwardCSolis@rhyta.com,201-234-0166,3806ec9b-b210-44aa-8334-fd160b54333e,40.762535,-74.132742,83.3,187,Weathervane,"Industrial economist"
Lori,I,Pearson,"2215 Reynolds Alley",Pomona,91766,LoriIPearson@fleckens.hu,562-267-0382,c76519b3-a816-462e-b44c-05133f6f0e6e,33.950275,-117.747175,62.9,155,"Strategy Consulting",Groundskeeper
Jessica,F,Rogers,"690 Raintree Boulevard",Indianapolis,46240,JessicaFRogers@armyspy.com,765-272-4008,5b0fbddc-53f6-4e2e-a862-af574b1eabdf,39.889125,-86.102911,95.9,154,"The Great Train Stores","Palliative care nurse"
Robert,M,Irving,"1727 Kerry Way","Los Angeles",90071,RobertMIrving@superrito.com,562-792-8966,8aac9267-8960-4119-93e4-789fea185ce1,34.09494,-118.247883,81.1,187,"Asiatic Solutions","Rehabilitation counselor"
Blanca,W,Rodriguez,"3188 Lodgeville Road",Minneapolis,55402,BlancaWRodriguez@armyspy.com,612-348-1663,14bfc20b-6cb9-40f3-86aa-f97fab03e6b3,45.02836,-93.306942,89.3,166,"Block Distributors","Re-recording mixer"
Derek,C,Pack,"4519 Villa Drive","South Bend",46625,DerekCPack@superrito.com,574-356-4250,a5e5f8a8-ef07-46eb-a043-f0f1a42c077f,41.694165,-86.283541,60.5,180,"Ideal Garden Maintenance","Orthopedic nurse"
Benjamin,K,Harrington,"3981 Turkey Pen Lane",Hayneville,36040,BenjaminKHarrington@superrito.com,334-548-0312,0374ede9-0471-440f-9971-c6accc29f820,32.099768,-86.696224,62.5,165,"Cardinal Stores","Police dispatcher"
Mary,J,Jensen,"2894 Valley Lane",Austin,78701,MaryJJensen@superrito.com,512-688-4190,1d01ef72-636d-47db-8d78-df4b058dd504,30.312901,-97.760226,50.3,158,Ejecta,"Funeral manager"
Amy,G,Guerra,"4568 Seth Street",Brownwood,76801,AmyGGuerra@einrot.com,325-643-6782,a2e194f2-7dca-4b1b-bfba-edf4ee3e3eb6,31.611432,-99.066499,101.0,154,Perisolution,"Small engine service technician"
Jessica,D,Boll,"1805 Lyon Avenue",Worcester,01609,JessicaDBoll@jourrapide.com,508-956-0254,d2646e4a-bbe7-401f-be56-adedc2c1b92b,42.208607,-71.788219,59.2,165,"Joseph Magnin","Marine biologist"
Margaret,J,Hayward,"3467 Frank Avenue",Brimfield,01010,MargaretJHayward@jourrapide.com,413-245-0993,64d711c2-cd36-49d7-92a4-56c6137a043e,42.133414,-72.240014,55.3,158,"Red Owl","Quality auditor"
Lucille,A,Hubbard,"1911 Beechwood Drive",Wilkinsburg,15221,LucilleAHubbard@fleckens.hu,412-247-6395,5ddfa1aa-559d-4db5-ad5f-4e0547229e0f,40.541305,-79.859758,68.0,158,"White Tower Hamburgers","Senior reactor operator"
Susan,R,Jackson,"4514 Java Lane",Columbia,29201,SusanRJackson@teleworm.us,803-518-5947,50682d25-ebd1-4c28-9f44-e85d54874fce,34.027247,-81.046535,57.4,162,"Country Club Markets","Typesetting machine tender"
Aurelia,D,Brown,"869 Settlers Lane","New York",10036,AureliaDBrown@einrot.com,917-777-6061,ad0944ff-f447-4fbd-9bca-9b261aa29c95,40.711743,-73.923221,61.3,158,Tweeter,"Electromechanical equipment assembler"
James,E,Moore,"862 Garfield Road",Peoria,61602,JamesEMoore@rhyta.com,309-674-4763,1bb4f427-178a-4b55-bd74-c63adbff2a27,40.663083,-89.691278,92.6,165,"Tape World","Ceiling tile installer"
Bertha,A,Langford,"3707 Rocky Road",Philadelphia,19103,BerthaALangford@rhyta.com,215-693-9231,d9c9f57f-61ad-4fcf-8877-ece3f04f7250,39.951979,-75.234128,73.0,175,"Sofa Express","Police dispatcher"
Patrick,F,Novello,"4674 Mulberry Avenue","North Little Rock",72114,PatrickFNovello@teleworm.us,501-307-8437,79aa6b6f-534b-4dd4-a00d-d3a982cc1234,34.863056,-92.169481,61.8,188,"Leath Furniture","Campaign manager"
Mildred,C,Coplin,"810 Frederick Street","Rancho Cordova",95742,MildredCCoplin@teleworm.us,916-257-7463,58a2e665-7708-4282-869d-7ebd63fef6a3,38.478638,-121.134228,79.3,164,Gottschalks,"Labor relations manager"
Peter,O,Reed,"4732 Parkway Drive",Tucson,85712,PeterOReed@fleckens.hu,520-508-5947,34b57d2f-6acd-464d-8a68-cc20345dde3f,32.220055,-110.965433,85.2,165,Wag's,"Career counselor"
Alan,C,Taylor,"717 Burton Avenue",Memphis,38117,AlanCTaylor@cuvox.de,901-620-1321,0ff4e62e-a5f7-40c1-aa58-35897860f812,35.058045,-89.90689,78.2,175,Netaid,"Paving equipment operator"
Tana,T,Ullery,"838 Ritter Street",Huntsville,35816,TanaTUllery@teleworm.us,256-222-5534,ac897368-1ea0-4169-baa8-74ce008fbf33,34.717243,-86.711386,61.0,161,"Maxiserve ","Cardiac and vascular nurse"
Valentine,K,Joyce,"3022 Buck Drive",Montpelier,05602,ValentineKJoyce@teleworm.us,802-229-8832,fa434d37-ce8a-4a0d-a4e9-af0b1064ab49,44.195293,-72.689294,81.8,169,"Buena Vista Garden Maintenance","Compensation and benefits technician"
Virginia,L,Guinn,"3605 Nutter Street","Kansas City",64106,VirginiaLGuinn@fleckens.hu,816-203-6892,6490df2b-f91c-4f0a-b0e3-aec43b683693,39.170811,-94.467573,94.9,155,"Value Giant","Computer clerk"
Kira,J,Ruiz,"4257 Woodland Avenue","New Orleans",70087,KiraJRuiz@gustr.com,985-570-3463,2c504a92-6fe8-4dfb-a205-badab82281b7,30.028939,-90.021173,71.8,168,Nobil,"Heat treating equipment tender"
Amber,M,Petersen,"3565 Late Avenue",Clinton,73601,AmberMPetersen@dayrep.com,580-751-8262,31febf03-ec1c-4456-96fd-bc777b74a985,35.586642,-98.937375,72.7,168,"American Wholesale Club",Cosmetologist
Jessie,K,Weber,"3304 Marcus Street",Birmingham,35203,JessieKWeber@einrot.com,256-649-4718,d8e01cdf-febe-4ed0-8981-c7ec4d9685da,33.527242,-86.784527,99.5,166,"Farmer Jack","Web designer"
Harold,T,Ward,"647 Wescam Court",Wakefield,01880,HaroldTWard@dayrep.com,781-213-6000,11cd367c-2dd1-4242-9c9c-ceb8c2e12902,42.55647,-71.129182,96.6,181,"Body Fate",Historian
Raymond,D,Harris,"788 Beech Street","San Francisco",94107,RaymondDHarris@jourrapide.com,925-750-3405,f14d1006-c147-4dfc-901d-091c80218e99,37.718742,-122.430226,70.4,162,GEX,"Press operator"
Mary,D,Cecil,"622 Irish Lane",Onalaska,54650,MaryDCecil@teleworm.us,608-783-6943,75026ffd-593c-4ebd-8d65-990bc6887397,43.835537,-91.252257,68.9,167,"Crafts & More","Credentials specialist"
Cynthia,K,Lopez,"3286 Stonepot Road",Elizabeth,07201,CynthiaKLopez@gustr.com,908-354-9213,744f3656-501d-415d-a4ca-113539299f26,40.671185,-74.128008,53.5,159,Erlebacher's,"Trauma nurse"
Mark,M,Ikard,"4463 Lauren Drive",Madison,53703,MarkMIkard@jourrapide.com,608-473-9760,e103e938-0f76-478e-b440-307dc3eacaa0,43.131533,-89.402159,73.4,167,"Western Auto","Political scientist"
Ken,R,Douglas,"3906 Wayback Lane",Levittown,11756,KenRDouglas@armyspy.com,631-442-2136,87d7fbb6-881b-4d1a-81b8-8078083e53ee,40.73245,-73.535124,92.3,186,Benesome,"Weaving machine operator"
Mary,C,Parker,"1639 McVaney Road",Rutherfordton,28139,MaryCParker@cuvox.de,828-286-8083,ce8fda1e-d464-4379-9d44-1c9bde9895cf,35.280965,-82.121783,69.6,162,"Rogersound Labs","Elementary school teacher"
George,M,Coyne,"1272 Bastin Drive","Fort Washington",19034,GeorgeMCoyne@rhyta.com,484-691-1609,74dd3fda-f791-4526-b5ff-64d4c5702148,40.109422,-75.212695,72.1,168,"Locost Accessories","Agent-contract clerk"
Clemente,G,Fleenor,"3857 Adonais Way",Atlanta,30303,ClementeGFleenor@armyspy.com,678-488-3476,d4169079-a127-4b34-a7f2-176471aa07c7,33.705779,-84.387296,95.0,165,"Rhodes Furniture","Loan closer"
James,L,Johnson,"2269 Walt Nuzum Farm Road",Nunda,14517,JamesLJohnson@rhyta.com,585-468-4433,8900ea99-a024-44a0-bb9b-6fac7f750131,42.535337,-77.954312,111.2,174,"Kragen Auto Parts","Otorhinolaryngology nurse"
Wilma,C,Engle,"3889 Buffalo Creek Road",Nashville,37211,WilmaCEngle@rhyta.com,615-828-0452,9be44115-0f0f-4ab8-afed-284cf46393f5,36.141739,-86.795754,78.1,158,"Total Serve","Molding, coremaking, and casting machine operator"
Hugo,M,Krol,"2093 Half and Half Drive","West Palm Beach",33410,HugoMKrol@cuvox.de,561-228-8546,2820df50-2a3e-4802-adfb-00678d93e6d6,26.692998,-80.184975,109.9,184,"Second Time Around",Chauffeur
Brenda,D,Pennock,"1043 Middleville Road",Arcadia,91006,BrendaDPennock@fleckens.hu,626-294-5510,2ef33697-732b-4fe5-9d21-c76a335c8aa1,34.146939,-118.093615,70.5,157,"Good Guys","Literary interpreter"
James,T,Triplett,"3881 Kidd Avenue",Nenana,99760,JamesTTriplett@einrot.com,907-832-1649,470317bd-cdc8-45af-8c2b-b7baf8ef4dbe,64.49536,-148.577168,90.1,168,"Good Guys","Benefits clerk"
Kent,S,Thompson,"1687 Timbercrest Road",Naukiti,99901,KentSThompson@gustr.com,907-629-2620,286194da-c0da-4c98-a325-13df88448ea5,63.663327,-154.427879,73.3,184,"Consumers Food and Drug","Shipping-and-receiving supervisor"
Tammy,M,Trent,"4437 Watson Street",Trenton,08608,TammyMTrent@armyspy.com,609-777-8710,d3253a4d-bef0-4434-bfde-4086f359b80c,40.215388,-74.836427,97.2,153,"Wild Oats Markets","Aircraft structure assembler"
Brett,R,Walters,"2251 Red Bud Lane",Teterboro,07608,BrettRWalters@rhyta.com,862-204-8620,430404bc-1df8-4f01-a5b0-684874b7f0b2,40.872909,-73.973869,76.0,184,"Oranges Records & Tapes",Bookbinder
Jonelle,L,Bradshaw,"3174 Brookside Drive",Birmingham,35209,JonelleLBradshaw@jourrapide.com,205-378-4864,a85c2160-faf8-4a54-9e9e-9459d5c858ad,33.437241,-86.714692,54.0,151,"Midwest TV & Appliance","Industrial hygienist"
Stephen,D,Morrison,"1113 Lords Way",Rutherford,38369,StephenDMorrison@gustr.com,731-665-9711,4d76a076-0a69-48b8-b08f-322ca86a030a,36.04455,-88.884045,112.3,179,"A Plus Lawn Care","International human resources manager"
Thomas,C,Schnell,"3074 Passaic Street",Washington,20036,ThomasCSchnell@rhyta.com,202-303-1510,76e8c742-302e-4154-a0ee-e7ee6d8503fc,38.932921,-77.040562,72.3,165,"Crazy Tiger","Transportation equipment painter"
Carol,G,Agee,"2411 Goldleaf Lane","Jersey City",07304,CarolGAgee@fleckens.hu,201-615-5573,a6eec0e7-759a-4ebc-b49f-d1303afb2cd3,40.738182,-74.176486,88.0,173,"Al's Auto Parts","Adult secondary education teacher"
Karen,R,Shell,"356 Traders Alley","Kansas City",66215,KarenRShell@teleworm.us,816-352-2136,0c037990-8dee-44ec-b2a3-9f09daf9c597,39.013391,-94.612825,87.1,172,Nedick's,"Human resources administrative assistant"
Diana,F,Carmichael,"1218 Charack Road",Jeffersonville,47130,DianaFCarmichael@cuvox.de,812-288-8765,977ee18c-3cc4-4dc9-abbe-8c58912cef8e,38.31744,-85.60127,63.6,156,Evans,"Therapeutic recreation specialist"
Roy,T,Hastings,"4093 Coventry Court",Gulfport,39501,RoyTHastings@fleckens.hu,228-232-5117,2b5547d1-d0f0-46cc-a6eb-1568899b92f0,30.460604,-89.065705,67.4,188,"Erb Lumber","A & P mechanic"
Pedro,J,Smith,"2602 Skinner Hollow Road",Medford,97501,PedroJSmith@cuvox.de,541-770-6750,622c167f-2c3c-4e71-8e3a-35c42b061f84,42.321348,-122.821354,82.5,189,"Universal Design Partners","Braille clerk"
Gloria,B,Waller,"2648 Harter Street",Dayton,45402,GloriaBWaller@fleckens.hu,937-662-7104,44742e94-2b88-4c4e-9eed-500d81e43637,39.671998,-84.211474,102.5,173,"Exact Solutions","Middle school teacher"
Janice,N,Helmick,"2779 Thrash Trail",Longview,75601,JaniceNHelmick@teleworm.us,903-557-3060,efd04fd7-8cb6-4173-8098-26e15e8a4992,32.599921,-94.721288,93.0,161,Gallenkamp,"Employee development manager"
Christopher,R,Foster,"3982 Worley Avenue",Blairs,24527,ChristopherRFoster@teleworm.us,434-429-0573,cd6b80c2-1df3-44d5-81df-9939c034a206,36.666574,-79.243227,93.3,170,"Galaxy Man","Fork lift driver"
Michael,M,James,"3200 Stroop Hill Road",Atlanta,30309,MichaelMJames@superrito.com,404-837-3274,5f414f64-c0d1-4f03-9f1c-48344191fb71,33.815783,-84.467208,95.4,183,"Mr. Clark's Appliances","Junior high school teacher"
Alex,P,Kraft,"1749 Duffy Street",Merrillville,46410,AlexPKraft@armyspy.com,219-755-5270,2a7aa1fc-62b2-4f95-a046-85062ce3c07c,41.531107,-87.228466,105.5,182,"Gas Zone","Elevator inspector"
Philip,E,Stevens,"738 White Pine Lane","White Sulphur Spring",24986,PhilipEStevens@superrito.com,540-559-1264,88d012a5-b28c-4aca-9135-80b3e4a8c1fa,38.024562,-79.588846,101.9,178,HouseWorks!,Physiologist
John,S,Pearson,"285 Elmwood Avenue",Chandler,85225,JohnSPearson@fleckens.hu,480-963-0837,f14a06ff-56aa-496f-81f8-6fe8fea732e5,33.399943,-111.919985,87.1,175,"Virgin Megastores",Allergist
Ruth,L,Thomas,"4330 Rebecca Street",Bensenville,60106,RuthLThomas@superrito.com,847-739-0549,bc325625-7df4-4636-9b5f-cc4d22b00b80,42.02852,-87.870327,62.8,174,"Sunny Real Estate Investments","Skills trainer"
Horace,A,Blake,"1761 Broadway Avenue",Chattanooga,37421,HoraceABlake@superrito.com,423-819-0407,82895f40-a430-4359-9dd3-e2eb68ed2ee5,35.093039,-85.236089,66.1,180,"The Pink Pig Tavern","Radio and telecommunications equipment repairer"
Scott,K,Lopez,"1763 Farnum Road","New York",10023,ScottKLopez@gustr.com,212-362-5959,d69f94f1-9e23-4df7-980a-8c5518203db0,40.685667,-73.986712,116.4,175,Tianguis,"Applications programmer"
Rita,D,Dillow,"541 Ersel Street",Dallas,75225,RitaDDillow@fleckens.hu,214-373-8216,3f8af44a-950b-40b9-b05b-22b94e431b86,32.911578,-96.708708,63.5,156,"Video Concepts","Color printer operator"
Ladonna,T,Miles,"2878 Morgan Street",Pensacola,32507,LadonnaTMiles@fleckens.hu,850-457-1700,6ded1e05-66cb-448e-9de1-f7150243beee,30.299015,-87.398364,58.0,161,Stratabiz,"Motion picture projectionist"
Richard,K,Truong,"3837 Amethyst Drive",Lansing,48933,RichardKTruong@rhyta.com,517-364-7890,9888ba1a-769d-458d-8b2f-f8c37d8b41c8,42.829172,-84.576555,80.7,179,"Exact Solutions",Announcer
Gregg,J,Olesen,"842 Doctors Drive","Los Angeles",90017,GreggJOlesen@einrot.com,310-362-9727,8af35bf7-07b5-439a-a3c8-c486df4eebd4,34.033369,-118.306486,110.3,174,"The Wall","Plant operator"
Arthur,C,People,"4619 Dovetail Drive",Schaumburg,60173,ArthurCPeople@einrot.com,847-306-6042,b47aff5c-1c05-4427-87a3-4782b55dfd07,42.146137,-87.9713,80.7,180,"Total Yard Management",Cabinetmaker
Elsie,J,Baldwin,"1375 Todds Lane","San Antonio",78205,ElsieJBaldwin@rhyta.com,210-579-2396,47c3b114-dd19-4357-b5b7-c10b91378fcb,29.492907,-98.440998,59.0,152,"Vibrant Man",Marine
Taylor,E,Conley,"3583 Orchard Street",Burnsville,55337,TaylorEConley@fleckens.hu,952-736-4907,2a3cd3cf-bd14-48ec-adf6-044c176261b2,44.796958,-93.332427,71.6,182,"Foot Quarters","DEA agent"
Walter,E,Ferguson,"3296 Irving Road",Columbus,43215,WalterEFerguson@rhyta.com,740-444-7622,d347e8e0-cd9b-4cd4-945d-8f825498faac,39.904537,-82.995076,64.3,179,"Franklin Simon","Chemical engineer"
Deborah,M,Alcaraz,"2488 Sycamore Fork Road","Eden Prairie",55344,DeborahMAlcaraz@gustr.com,952-996-5615,b3ca61e9-a0c0-4de4-a2c1-b26cb7f115da,44.794991,-93.4708,105.0,169,Excella,"Operating room technician"
Glenda,A,Nance,"2921 Robinson Court",Saginaw,48601,GlendaANance@fleckens.hu,989-482-8950,97e02b60-aae4-429f-8f74-7fc9854d72d4,43.513467,-83.989038,65.8,158,"Food Barn","Job service specialist"
Janet,H,Webster,"3253 Whispering Pines Circle",Irving,75039,JanetHWebster@jourrapide.com,972-402-4094,8a8a0f5d-f8ef-48ff-bf46-9d6973b5a06c,32.793219,-96.85584,58.5,154,"Clemens Markets","College instructor"
Kirk,S,Straight,"4597 Adams Drive",Bryan,77803,KirkSStraight@rhyta.com,979-492-9684,671b0e2f-c21d-4471-9e10-5649d971ca84,30.581583,-96.365328,89.2,163,"Idea Infinity",Journalist
Mildred,G,Seifert,"197 Feathers Hooves Drive",Patchogue,11772,MildredGSeifert@rhyta.com,631-654-5347,49053b54-052c-40ac-9c3c-f3cc8456863b,40.690784,-73.035848,77.4,162,"Vibrant Man","Attendance clerk"
George,M,Lamarr,"4054 Cheshire Road","New York",10014,GeorgeMLamarr@teleworm.us,203-347-5626,eb5c1b09-7105-4a2f-b3db-1d073b3cba5a,40.688969,-73.957241,78.1,187,"Levitz Furniture",EMT
Brenda,D,Mike,"4973 Newton Street",Minneapolis,55401,BrendaDMike@superrito.com,320-323-8157,0a078493-5429-4f31-ad9b-0908f6ebb445,44.945345,-93.364093,71.0,163,TheBottomHalf,"Landscape designer"
Gary,K,Bailey,"3969 Lords Way","Union City",38261,GaryKBailey@dayrep.com,731-724-1236,566ca620-61c9-412a-88f5-8b6214f2f29c,36.378729,-89.048658,109.7,170,"Rossi Auto Parts","Precious stone and metal worker"
Ismael,M,Huskey,"776 Berkshire Circle",Knoxville,37920,IsmaelMHuskey@armyspy.com,865-579-9112,6ae2dae2-4316-494f-8f49-4384adbcaa20,35.939114,-83.813559,77.6,169,"Lone Wolf Wealth Planning",Sportscaster
Matthew,G,Linney,"1156 Brentwood Drive",Austin,78749,MatthewGLinney@gustr.com,512-826-2910,f672984e-33bb-4ee4-8880-a9444574bec1,30.114093,-97.952517,93.2,162,"Corinthian Designs",Artist
Anna,J,Paris,"1162 Southside Lane",Gardena,90248,AnnaJParis@teleworm.us,323-687-5598,d95d0e68-42ca-45b0-b5b7-9d0d4b61c610,33.780948,-118.36148,80.6,167,"P. Samuels Men's Clothiers","Histology technician"
Gloria,R,Milligan,"1104 Hamill Avenue","San Diego",92111,GloriaRMilligan@teleworm.us,858-277-7053,a5ffd014-4b8b-4b38-962a-bb5ad153b8f6,32.782106,-117.113675,97.5,154,"Elm Farm","Clerical worker supervisor"
Ella,E,Lugo,"4580 Riverwood Drive",Redding,96001,EllaELugo@armyspy.com,530-322-4665,5afe7a01-eb64-4451-a8e0-0f15d22d0d7a,40.655092,-122.363599,75.1,156,"Bumper to Bumper Auto Parts",Geologist
Amy,R,McBride,"3610 Stonecoal Road",Sandusky,44870,AmyRMcBride@einrot.com,419-609-6838,fb15d4d9-4dc4-4e54-b1ec-980d6f3c3593,41.303363,-82.795506,70.4,154,Marianne,"Pest control technician"
Wanda,B,Anderson,"3581 Wayside Lane","San Francisco",94124,WandaBAnderson@dayrep.com,510-274-4254,682577eb-e020-403e-b040-aa1d97715c23,37.724263,-122.351582,63.6,165,"Locost Accessories","Professional sports scout"
Zoraida,K,Porter,"3380 Horner Street",Youngstown,44512,ZoraidaKPorter@gustr.com,330-910-9098,a0351373-aa30-4312-bb60-a695b059b74c,41.007798,-80.736357,65.4,163,GEX,"Piano tuner"
Matthew,M,Madrid,"4828 Gregory Lane",Louisville,40299,MatthewMMadrid@armyspy.com,502-594-2822,8a7a4a2c-9f19-475c-9825-622d85c698a2,38.16435,-85.592029,105.9,183,"Super Place","Electronics engineer"
Paul,A,Foster,"334 Denver Avenue","Los Angeles",90017,PaulAFoster@dayrep.com,951-489-6213,18c898cb-e03b-4489-8963-4457c10f8fc5,34.105264,-118.314026,93.3,179,Weatherill's,"U.S. Secret Service agent"
Alisha,G,Bustamante,"1358 Horseshoe Lane",Newark,19714,AlishaGBustamante@cuvox.de,484-421-9409,74845a38-820b-48e5-adb0-31be6938b66c,39.713547,-75.700115,96.1,169,Stratapro,Server
Carol,J,Spring,"1507 Sussex Court",Dublin,76446,CarolJSpring@superrito.com,254-445-2438,991dada6-1ca9-4b29-b6fa-a4e1e2b78d70,32.079769,-98.355208,94.4,158,"Central Hardware","Receiving clerk"
Priscilla,A,Paul,"3000 Primrose Lane",Madison,53703,PriscillaAPaul@fleckens.hu,608-630-8809,6d75262c-e100-4682-a42a-d46b0940fbde,43.027451,-89.315006,85.6,158,"Pro Star Garden Management","Remedial education teacher"
Matthew,L,Salazar,"609 Atha Drive",Bakersfield,93304,MatthewLSalazar@gustr.com,661-706-7151,392052c8-273d-40d7-840a-c3be02ef814f,35.431902,-118.989021,102.8,185,"House Works","Demographic economist"
Minnie,L,Daily,"2490 Passaic Street",Washington,20005,MinnieLDaily@teleworm.us,202-285-9405,81a4892e-edda-45aa-87e6-4c1b12bd95bf,38.858337,-77.034486,65.6,153,Excella,"Office machine and cash register technician"
Bessie,L,Ayala,"4255 Echo Lane",Kalamazoo,49007,BessieLAyala@einrot.com,269-870-4128,3f2d5dbf-9791-412c-a21d-e46de686f9ea,42.29886,-85.543305,99.6,170,"Lionel Playworld","Chief financial officer"
Julius,B,Simpson,"986 Henry Ford Avenue",Tulsa,74131,JuliusBSimpson@fleckens.hu,918-289-8719,a204b350-9c68-400d-a20c-8feca4f39510,36.148775,-96.166549,99.2,189,"Crazy Eddie","Meat packer"
Marion,J,Morgan,"704 Nuzum Court",Buffalo,14214,MarionJMorgan@armyspy.com,716-504-9753,73fe51a3-9234-4b13-93be-8c7d1d3ec2b3,42.945494,-78.890348,98.0,154,"David Weis",Brickmason
Mario,T,Overstreet,"2687 Marietta Street","Santa Rosa",95401,MarioTOverstreet@armyspy.com,707-525-7854,62778e03-0724-4f84-87a6-7b884960856c,38.408387,-122.711002,101.9,172,"Food Giant",Clerk
Patrick,T,Mills,"4440 Crestview Manor",Carmel,46032,PatrickTMills@dayrep.com,317-303-2001,07541828-900c-4b80-a825-4c3a04aa44b0,39.961513,-86.262392,86.3,171,"Golden's Distributors","Public relations coordinator"
David,T,Ferreira,"2007 Jadewood Drive",Chicago,60601,DavidTFerreira@rhyta.com,219-979-9628,c74bcb2e-a7ee-448f-90fc-564f6e638f6b,41.877817,-87.656208,96.0,170,"Today's Man","Armed Forces"
Bennie,M,White,"3829 Liberty Avenue","Santa Ana",92704,BennieMWhite@einrot.com,714-429-6275,c92fc916-8aea-4348-848d-4fc5d89bd59b,33.769969,-117.850594,87.0,174,"Home Centers","Urology nurse"
Teresa,R,Anderson,"1596 Bassell Avenue","Little Rock",72210,TeresaRAnderson@fleckens.hu,501-658-1805,f17f6a06-85b2-44e1-9300-80ad9d3a407c,34.765994,-92.487403,99.5,155,"Joshua Doore","Hydrographic surveyor"
Jacob,H,Urbina,"301 Laurel Lee","Golden Valley",55427,JacobHUrbina@armyspy.com,651-789-2769,fff3a754-ee3f-4039-bc0f-51315d1325f6,45.0403,-93.371263,80.7,165,"Hills Supermarkets","Construction equipment operator"
Tameka,W,Reid,"1583 Sugar Camp Road","Blue Earth",56013,TamekaWReid@dayrep.com,507-526-4706,e3d6745f-0385-4642-b64d-4ab14af1d4b0,43.673914,-94.080544,69.2,174,Kent's,"Power distributor"
Bryan,J,Hudson,"2396 Stewart Street",Carmel,46032,BryanJHudson@fleckens.hu,317-706-1306,d9497efc-8b3d-43c8-ad02-6cec3c0afee2,40.034811,-86.276304,85.4,180,Silo,"Medical translator"
Brandy,J,Motley,"3703 Neuport Lane",Covington,30209,BrandyJMotley@cuvox.de,770-385-0616,a8827613-370a-4257-a52b-4f54a6981779,33.628334,-83.817651,74.6,164,"Value Giant","Public affairs specialist"
Hugh,J,Archey,"4075 Milford Street",Campton,03223,HughJArchey@cuvox.de,603-726-5203,49eb2305-76a4-4637-8990-9b5523729aea,43.905424,-71.552416,101.7,173,"Infinite Wealth","Freight agent"
Michael,M,Wilson,"124 Crestview Terrace","Del Rio",78840,MichaelMWilson@einrot.com,830-774-8738,13b4615a-bdcd-4316-a1e8-7bce57c6c2eb,29.678944,-100.74287,101.0,175,"The Goose and Duck","Order clerk"
Vernice,A,Delong,"4600 Baker Avenue","Fort Worth",76102,VerniceADelong@rhyta.com,817-842-2254,80b96c22-6f05-4afe-993f-669a4bab8d67,32.755897,-97.308512,90.8,158,"Millenia Life","Medical writer"
Aura,S,Snyder,"2665 Locust View Drive","San Jose",95113,AuraSSnyder@gustr.com,415-952-4159,e4f00172-8946-421c-b3bf-fe4c9c7bdd85,37.381604,-121.868558,58.9,173,"Matrix Architectural Service","Tax preparer"
Helen,D,Mathis,"602 Horizon Circle",Tacoma,98402,HelenDMathis@superrito.com,253-517-2080,136c317b-c11f-4ead-8839-2f1789db176b,47.284332,-122.477579,86.4,169,Dahlkemper's,"Dental hygienist"
Catherine,A,Short,"1754 East Avenue",Gilbert,85233,CatherineAShort@cuvox.de,480-250-9766,ffdd6cfa-0675-4fbf-8bda-755e8f06b881,33.374561,-111.831284,58.0,162,Gemco,"Public finance economist"
Evelyn,W,Palma,"3952 Haymond Rocks Road",Richland,97870,EvelynWPalma@armyspy.com,541-540-2781,689fe5b9-51b7-4ba8-97b6-3ba1ae072630,44.706605,-117.337773,93.5,158,"Steve & Barry's","Information designer"
Charles,C,Rudolph,"2488 Progress Way","Saint Cloud",56301,CharlesCRudolph@rhyta.com,320-208-4403,e0adc912-7e62-4a25-9cde-37b4ed7008e2,45.494053,-94.13922,80.2,181,"Wholesale Club, Inc.","Office administrator"
Katherine,W,Rivers,"231 Leverton Cove Road",Palmer,01069,KatherineWRivers@einrot.com,413-289-0365,147aae84-fe75-4f0c-8760-febf64841a57,42.123232,-72.228692,72.2,155,Hechinger,"Utility meter reader"
Mai,R,Evans,"2751 Westwood Avenue",Hicksville,11801,MaiREvans@teleworm.us,516-822-9375,31ab4785-506c-45bb-9a3b-63f254cc2522,40.736655,-73.442139,67.2,174,"A+ Investments","Ship engineer"
Erik,K,Brown,"4679 East Avenue",Mesa,85201,ErikKBrown@gustr.com,480-353-5111,5eb4416d-28ac-48aa-baa6-20af50a6b254,33.496033,-111.946085,79.8,180,"Realty Depot","Social worker"
Joseph,C,Sneed,"4190 Bernardo Street",Evansville,47715,JosephCSneed@cuvox.de,812-962-7292,c5ff5b1b-f25c-4179-9713-80008c107b9e,37.965102,-87.474622,113.6,175,"Laura Ashley","Desk clerk"
Melinda,W,Principato,"1648 John Daniel Drive",Manchester,63011,MelindaWPrincipato@fleckens.hu,573-724-9553,7a7188cf-7848-4c73-907f-6e7c0707f0c8,39.637143,-90.328944,72.9,164,"Mr. Clark's Appliances",Entomologist
Linda,G,Lewis,"4626 Kidd Avenue",Nulato,99765,LindaGLewis@jourrapide.com,907-898-6950,8084d910-2403-4e51-a8e9-6386c6cb437f,64.759275,-158.177691,75.9,153,Datacorp,"University dean"
Floyd,A,Carson,"4240 Summit Park Avenue",Southfield,48034,FloydACarson@jourrapide.com,248-942-7339,dbd5396e-ba98-4070-bf3d-af91a4579797,42.534868,-83.354771,88.3,169,"National Lumber","Health information technician"
Moises,M,Gray,"3102 Oakwood Avenue","New York",10011,MoisesMGray@jourrapide.com,212-645-4442,cd00f17a-e61a-4b0e-ba50-5e0a251141a4,40.769141,-73.939554,116.5,187,"Purity Supreme","Image consultant"
Nancy,D,O'Connor,"2145 Elmwood Avenue",Newark,19714,NancyDOConnor@superrito.com,484-210-5827,efcda86a-3c08-4556-aedc-c9f67afd3ed1,39.658648,-75.765994,48.2,174,"Pender's Food Stores","Financial planner"
Sherman,S,Sappington,"4483 Owagner Lane",Seattle,98133,ShermanSSappington@armyspy.com,206-300-4055,a484b6ae-db56-44f3-8820-118be87bc2ac,47.803244,-122.33766,92.4,184,Lum's,Magistrate
Daisy,O,Stephenson,"1352 Holly Street",Augusta,30907,DaisyOStephenson@jourrapide.com,706-228-0682,371c8e56-8e71-4fb1-b6d9-8c4584bfc0f8,33.580439,-82.06998,57.8,171,"Forum Cafeterias","Wholesale buyer"
William,L,Russell,"535 Scott Street",Poughkeepsie,12601,WilliamLRussell@rhyta.com,845-488-6180,4df6fc3c-d072-474e-a332-bed9d332bd5d,41.7394,-73.991128,95.1,180,"Endicott Shoes","Scanner operator"
Gerald,D,Miceli,"658 Riverwood Drive",Sacramento,95814,GeraldDMiceli@teleworm.us,530-417-5617,48b5e4dc-5bd1-4980-b155-13fc453e3435,38.587701,-121.438502,68.1,179,"MacMarr Stores","Psychiatric technician"
Annemarie,C,Myers,"4593 Bluff Street","North Beach",20714,AnnemarieCMyers@fleckens.hu,301-812-0409,00bbe98c-43f0-4b14-b880-0c3e34a0bc8c,38.662815,-76.559906,61.4,169,"Joseph Magnin","Correspondence clerk"
Larry,L,Coward,"2857 Big Elm","Overland Park",64110,LarryLCoward@einrot.com,816-863-6367,00ddf354-439e-40cb-860b-f930ab93fbd1,38.925182,-94.614559,113.8,173,"Red Fox Tavern","Crossing guard"
Jennifer,M,Ezell,"799 Tibbs Avenue",Opheim,59250,JenniferMEzell@fleckens.hu,406-762-1111,0a66fb21-f60a-4d73-a3a3-4872073b270c,48.903672,-106.340817,54.7,168,Romp,Baker
Jerry,S,Peake,"4603 Eagle Lane",Duluth,55805,JerrySPeake@superrito.com,218-724-4469,f6925a79-9fb3-45c6-8e8c-aed0399ef30e,46.716038,-92.151987,81.6,174,"Krauses Sofa Factory",Server
Matt,M,Clark,"234 Medical Center Drive",Venice,34285,MattMClark@einrot.com,941-412-5728,ed1ec755-3b5b-415d-a6d5-28d582d01634,27.050291,-82.505004,90.2,171,"Farrell's Ice Cream Parlour","Public health social worker"
Douglas,C,Jelks,"2106 Primrose Lane",Fitchburg,53719,DouglasCJelks@superrito.com,608-505-3324,f6d27f3b-aa86-45c3-ba4b-0b488b8d741c,42.907593,-89.418275,110.4,180,"Fradkin Brothers Furniture","Family child care provider"
Les,J,Stephens,"2219 Snyder Avenue",Charlotte,28209,LesJStephens@jourrapide.com,704-653-2177,9fc378e6-3aa9-4563-a0dc-11b4dcaddced,35.080726,-80.790833,81.5,168,"Simply Save","Financial economist"
Fernando,S,Smith,"4541 Sycamore Fork Road","Boca Raton",33486,FernandoSSmith@fleckens.hu,954-238-6316,ab99a4d6-e31b-4866-b1d4-deabe6b0a511,26.396433,-80.212059,78.2,171,"Infinity Investment Plan","Tumbling barrel painter"
Arthur,B,Cramer,"4599 Ben Street","East Lansing",48823,ArthurBCramer@teleworm.us,517-981-4178,8d51d4d2-6085-4646-b6e2-1a916c45ec51,42.784899,-84.439577,74.8,175,"Eden Lawn Service","Heavy-duty truck mechanic"
Tena,D,Mayers,"4408 Brown Street",Concord,94520,TenaDMayers@teleworm.us,925-998-9146,88cbde2e-e1f8-4b1f-b9d9-b2d0b0af85b2,38.029895,-122.033971,90.4,164,"Consumers and Consumers Express",Anchor
Tommy,C,McKeel,"4142 Ryder Avenue",Everett,98204,TommyCMcKeel@jourrapide.com,425-266-3473,99c0aeba-11fa-48b7-8ba8-bb5b302865fd,47.868283,-122.20709,88.9,180,"E-zhe Source","Construction and building inspector"
Jeffrey,C,Fowler,"4199 Settlers Lane",Brooklyn,11206,JeffreyCFowler@rhyta.com,917-840-1731,ebdf2572-6912-4758-b440-696c2112910c,40.731035,-74.022617,112.5,177,Roberd's,Collector
Levi,A,Kirby,"55 Burnside Avenue",Duchesne,84021,LeviAKirby@rhyta.com,435-738-5280,ef85af3e-acf1-46cb-93d9-51f5c38b1a18,40.112701,-110.492594,83.7,169,"Ukrop's Super Market","Local transit bus driver"
Nora,J,Mitchell,"716 Bombardier Way",Plymouth,48170,NoraJMitchell@rhyta.com,734-929-1653,1da0f09b-07f1-49e7-80eb-e684c7229cc1,42.375762,-83.557244,91.4,163,"Office Warehouse","Revenue officer"
Paul,W,Collins,"1750 Prudence Street","Lincoln Park",48146,PaulWCollins@fleckens.hu,313-386-8049,4409c4a3-8ec9-439b-828a-5008e93bbadd,42.304043,-83.265164,75.7,174,"Olympic Sports","Explosives worker"
Carlos,C,Petty,"4643 Bird Spring Lane",Houston,77070,CarlosCPetty@superrito.com,281-517-9842,fe5bfc21-0d23-429d-80d3-409e172038e3,30.01381,-95.537588,88.9,172,"House 2 Home","Cardiographic technician"
Shannon,S,Richards,"4406 Sycamore Circle",Dallas,75234,ShannonSRichards@fleckens.hu,682-554-8906,440a995e-2097-49f6-a958-844592ca70fe,32.918821,-96.921926,79.6,171,"Simple Solutions","Geodetic surveyor"
Jennifer,V,Begley,"4111 Catherine Drive",Hankinson,58041,JenniferVBegley@cuvox.de,701-242-9838,0992fb85-ece7-43e0-9412-b51b3aee1d9b,46.053615,-96.952789,86.5,158,"Parade of Shoes","Member services counselor"
Shannon,D,Clark,"4607 Smithfield Avenue",Amarillo,79101,ShannonDClark@fleckens.hu,806-680-0478,48ac73ca-6ff6-4b47-9eac-fc6e6a02d97d,35.149677,-101.751914,96.8,153,Libera,"Casino cashier"
James,J,Nichols,"1438 Forest Drive",Chantilly,22021,JamesJNichols@rhyta.com,703-851-2918,14c0c33c-a1a7-45a7-81f4-61409819f2d8,38.85139,-77.372577,102.7,169,"Crandall's Fine Furniture","Mining and geological engineer"
Helen,L,Hatfield,"2568 McDonald Avenue",Maitland,32751,HelenLHatfield@rhyta.com,407-902-4166,de7ed7ad-398d-4167-9e08-0a5ef4d656f5,28.66166,-81.397514,52.4,165,"Block Distributors","Advertising sales agent"
Jose,M,Parker,"4631 Poe Road",Scranton,29591,JoseMParker@jourrapide.com,843-210-6621,321dbb3a-29de-476c-9686-70dbdca96755,34.023175,-79.706198,69.8,186,"Gold Medal","Machine feeder"
Timothy,S,Pineda,"301 Central Avenue","Red Bank",07701,TimothySPineda@rhyta.com,201-355-0538,7e7a1a73-7f30-4a93-8a77-1b2f0e3bf1a0,40.360844,-74.02239,69.0,173,"Beefsteak Charlie's",Exterminator
Donald,L,Baker,"491 Pinchelone Street",Chesapeake,23324,DonaldLBaker@gustr.com,757-319-6059,7e405fca-b8ff-4874-8c04-26be83f954c0,36.79881,-76.327929,81.9,181,"Bodega Club","Cage cashier"
Larry,B,Morgan,"921 Elliott Street",Pittsburg,03592,LarryBMorgan@jourrapide.com,603-538-5664,c6c0c3af-89c8-4515-9882-83bb4f535eed,45.229243,-71.348419,68.7,186,"Tower Records","Eligibility interviewer"
Sarah,D,Barnhouse,"4651 Park Street","San Francisco",94107,SarahDBarnhouse@einrot.com,925-374-8486,95f98614-bf9c-40a1-96b1-ded079e04965,37.759537,-122.38515,53.8,172,Profitpros,"Court, municipal, and license clerk"
Olivia,G,Hughes,"4774 Black Oak Hollow Road",Sunnyvale,94086,OliviaGHughes@teleworm.us,408-736-0756,9496db72-d41a-4f6e-9d6f-460b205eac73,37.465825,-122.099888,102.1,174,Hechinger,"Plan examiner"
Judy,M,Smith,"861 Seltice Way",Boise,83704,JudyMSmith@teleworm.us,208-672-2126,fcddc4f0-d456-41c6-817a-903a54791991,43.549975,-116.201468,71.8,164,"Franklin Simon","Dermatology nurse"
Frederick,A,Jones,"4208 Brown Avenue",Greenville,29601,FrederickAJones@cuvox.de,864-921-5610,4be65981-6f96-4a6c-9edb-59cef51ace31,34.915025,-82.422567,64.8,164,"Listenin' Booth","Bridge and lock tender"
Michele,W,Oswald,"374 Marigold Lane",Miami,33179,MicheleWOswald@jourrapide.com,305-459-3884,88075731-418c-411a-8529-6c56efa90fa3,25.952955,-80.087997,62.8,156,"Payless Cashways","Radiologic technician"
Steven,E,Albert,"2143 Nicholas Street",Herington,67449,StevenEAlbert@einrot.com,785-258-4980,8b15a43e-a8d2-4628-9028-5b0c786f57a5,38.61529,-96.854866,75.7,169,"Universo Realtors","Computer chip processor"
Patricia,G,Parkinson,"4805 Timber Ridge Road",Sacramento,95814,PatriciaGParkinson@dayrep.com,916-837-0830,3fdbe19e-68f5-4db0-aa58-e65f557545f6,38.676348,-121.419818,59.3,157,"Shabby Chic",Lithographer
Jon,M,Miler,"658 Victoria Court",Portland,04101,JonMMiler@armyspy.com,207-449-6768,103267cd-fc23-47ce-924d-1c11932ecfbe,43.619212,-70.34949,62.0,189,Fireball,"Maxillofacial radiologist"
Peter,J,Hassen,"4635 Charles Street",Livonia,48150,PeterJHassen@superrito.com,734-513-1219,d21d7258-b614-4bfe-8d7b-d62eb79f1a27,42.366926,-83.334907,100.8,171,"Muscle Factory","Motel desk clerk"
Bobby,M,Taylor,"4295 Mulberry Avenue",Conway,72032,BobbyMTaylor@teleworm.us,501-336-2060,241ffcd2-6324-430a-844c-239d02ac8b77,35.158496,-92.394701,104.6,176,"Fradkin Brothers Furniture",Stenocaptioner
Bobby,F,Neil,"4345 Worthington Drive",Irving,75062,BobbyFNeil@fleckens.hu,972-570-4061,12cc664c-6726-4522-adde-d917e58fb9a6,32.791235,-96.953268,96.6,187,"Galaxy Man","Braille clerk"
Wanda,R,Sanchez,"3345 Garfield Road",Peoria,61602,WandaRSanchez@teleworm.us,309-606-1375,35251a4a-e992-4387-a85c-e1f2e85d2550,40.753114,-89.635068,100.5,169,"Olson's Market","Labor economist"
Kenneth,K,Currie,"2721 Valley Drive",Philadelphia,19103,KennethKCurrie@gustr.com,267-384-4872,aae3910d-8ea7-4223-8ee6-10847127166b,39.905009,-75.213975,90.7,184,"Audio Visions","Directory assistance operator"
Lori,J,Brewer,"4763 Rardin Drive",Oakland,94612,LoriJBrewer@cuvox.de,650-590-4582,c369dcc8-89bf-4051-beb9-faeecab0a319,37.717522,-122.345275,61.8,167,"Solution Answers","Theoretical mathematician"
Theresa,P,Greer,"1229 Hide A Way Road","San Jose",95113,TheresaPGreer@fleckens.hu,408-287-5604,2b33eec5-2b02-45bd-9120-d76a5ca658b8,37.368686,-121.956393,85.8,151,"Pup 'N' Taco","Support service manager"
Melvin,A,Dunbar,"92 Settlers Lane","New York",10016,MelvinADunbar@dayrep.com,917-762-9538,a8557211-29b5-4bf4-876e-546735eb0ccd,40.754729,-74.037613,107.4,183,"The Wiz","Communications specialist"
Helen,F,Decosta,"4596 Maple Street","Los Angeles",90017,HelenFDecosta@teleworm.us,714-410-6962,c1a4639a-c128-4fb8-b178-38916c29c880,34.0268,-118.236792,87.0,164,"Asian Solutions","Public safety dispatcher"
Jay,E,Alers,"180 Crowfield Road",Phoenix,85034,JayEAlers@einrot.com,602-809-4039,e8768b6b-cd75-4594-b76c-41eaeb646cef,33.426925,-112.009065,78.9,183,"Thriftway Food Mart","Product promoter"
Michael,A,Legg,"1608 Birch Street",Indianapolis,46240,MichaelALegg@dayrep.com,317-799-6549,ed607f93-db17-4935-a3fb-19e68720a582,39.881961,-86.0863,74.7,172,"Earl Abel's","Rehabilitation counselor"
Fritz,K,Martin,"4643 Airplane Avenue",Canaan,06018,FritzKMartin@jourrapide.com,860-824-4470,0252d8f9-cacc-45a8-9dd1-3b622b3f27b6,41.974628,-73.241789,61.0,173,"The Network Chef","Blood bank technologist"
William,M,Wolters,"392 Eagle Drive",Southfield,48075,WilliamMWolters@cuvox.de,734-839-0384,e7c517e3-1ff1-4100-9966-e99e0fa590a2,42.452159,-83.304361,101.4,184,"Leonard Krower & Sons","Computer typesetter"
Edelmira,W,Moore,"870 Airplane Avenue",Wallingford,06492,EdelmiraWMoore@einrot.com,860-917-8378,30851089-4778-4868-aa86-61b5a9d42154,41.386706,-72.899217,77.0,166,"Virgin Megastores",Bartender
Diana,J,Anderson,"4289 Davis Lane",Englewood,80112,DianaJAnderson@einrot.com,720-267-6005,61237d91-543c-4175-a2d2-5da22d60728e,39.499853,-104.836781,63.6,157,"Play Town","Loan collection officer"
Kenny,L,Murphy,"3452 Alpaca Way",Fullerton,92632,KennyLMurphy@rhyta.com,714-680-3265,6794e8d8-1f42-4c8e-8aef-9471e8af092c,33.914117,-117.991805,70.1,181,Furrow's,"Case management aide"
Jeff,M,Marquez,"65 Wiseman Street",Knoxville,37929,JeffMMarquez@superrito.com,865-259-9245,aa1b7631-14d2-4f3e-8493-bd65a1b69f1f,35.991339,-83.880375,83.7,173,"Great Clothes","Education planner"
Dave,A,Morrison,"1856 Rose Avenue",Metairie,70001,DaveAMorrison@superrito.com,504-208-8982,12225c75-978e-4cfc-9842-c12e5e5b9488,29.931992,-90.208779,95.6,182,"The Network Chef","Employment consultant"
Jennifer,V,Sorensen,"2615 Godfrey Street",Portland,97229,JenniferVSorensen@dayrep.com,503-613-5972,a2458f73-18f1-4e5b-b43a-f9923604804e,45.647554,-122.729778,91.0,163,Newhair,"Billing and posting clerk"
Jay,P,Hause,"2953 Crestview Manor",Indianapolis,46225,JayPHause@einrot.com,317-279-6914,04424708-bbbf-42d7-9116-34419b7612dd,39.771428,-86.13243,109.6,185,"National Shirt Shop",Sampler
Jennifer,S,Ponce,"3328 Lochmere Lane",Cheshire,06410,JenniferSPonce@teleworm.us,860-457-8356,339ce92a-8618-4e02-9c56-13249c5d9eec,41.434676,-72.811601,97.2,175,"Rogersound Labs","Pesticide handler"
Patrick,Y,Acosta,"4046 Woodstock Drive","El Monte",91731,PatrickYAcosta@rhyta.com,626-436-8125,761399f7-2bdf-4251-8d45-7b5c0f5d3b42,34.041411,-118.019232,68.2,173,"Ideal Garden Management","Court, municipal, and license clerk"
Patrick,P,George,"2561 Stutler Lane",Emporium,15834,PatrickPGeorge@einrot.com,814-486-9472,5cfd9b5a-edf2-4dde-9892-d86d86748701,41.467839,-78.24831,63.2,174,"Sunny's Surplus","Fiscal technician"
Kay,A,Haynes,"4874 Brooke Street",Houston,77092,KayAHaynes@superrito.com,713-680-2199,c1023bb4-3784-40a3-a34a-12c55336b798,29.907395,-95.488573,53.9,151,"The Lawn Guru","Claims adjuster"
Jimmy,O,Prince,"294 Daylene Drive",Southfield,48075,JimmyOPrince@einrot.com,734-571-4596,2351d413-4aaf-4e43-b636-9bc04deaf796,42.451069,-83.182164,74.2,183,"Monk Home Funding Services","Freight, stock, and material mover"
Eric,M,Beadles,"3454 Coburn Hollow Road",Peoria,61602,EricMBeadles@cuvox.de,309-395-3085,b8bb7a45-eff4-4cc8-bc6a-53a385a57cfb,40.72466,-89.561127,91.3,184,"Liberty Wealth Planners","Information technology trainer"
Joseph,A,Lopez,"4590 Old Dear Lane",Poughkeepsie,12601,JosephALopez@jourrapide.com,845-810-0078,e3636e7f-ee7b-448b-b7aa-a04a2f77e8ab,41.724251,-73.833374,76.2,172,"Complete Tech","Instructional materials director"
Alphonso,K,Obrien,"2832 Summit Park Avenue","Bloomfield Township",48302,AlphonsoKObrien@armyspy.com,248-885-7049,91ad36d9-5377-4ba3-afcb-57409cae1c74,42.605786,-83.24011,99.0,175,"Flagg Bros. Shoes","Foot specialist"
Lonnie,P,Chambers,"1703 Sundown Lane",Austin,78752,LonniePChambers@teleworm.us,512-260-4559,e6b53e42-3a0e-4c25-ac38-103ccb79cbec,30.392903,-97.614584,112.8,181,"Dee's Drive-In","Sports book writer"
Mary,A,Sullivan,"3917 Wood Duck Drive",Watton,49970,MaryASullivan@teleworm.us,906-355-5141,42bab1ac-f59f-4f7c-8b1b-574288f0171b,46.773226,-88.317718,99.2,161,"Big D Supermarkets","Computer hardware engineer"
Thomas,T,Eckert,"114 Cedar Lane",Cambridge,02141,ThomasTEckert@fleckens.hu,617-647-2934,d12a09b1-4c3c-41da-bb59-edaa6e06b903,42.368526,-71.161991,57.3,180,"Hills Supermarkets","CART provider"
Florencio,K,Adams,"1366 Charack Road",Jasper,47546,FlorencioKAdams@rhyta.com,812-309-9229,67e49a82-7ab5-454b-aea8-998403cc5a26,38.44321,-86.923318,106.2,184,"Erb Lumber","Public housing manager"
Roosevelt,R,Simoes,"1882 Frum Street",Nashville,37201,RooseveltRSimoes@gustr.com,615-312-4224,d89daf30-7126-4b59-95de-55fb43889ec3,36.240264,-86.749269,71.8,182,"Reliable Investments","Merchant marine officer"
Teresa,W,Cox,"4803 Tuna Street",Livonia,48150,TeresaWCox@fleckens.hu,810-874-7325,90901a92-5dce-4d8e-b1ac-01ff07cf30e5,42.330173,-83.287354,77.1,151,Sportswest,"Portrait photographer"
Thomas,A,Randall,"1418 Timber Oak Drive","San Luis Obispo",93401,ThomasARandall@cuvox.de,805-926-6572,b1559221-9e92-438a-b096-ef5a2304233e,35.190491,-120.546792,106.2,173,"Team Electronics","Employee benefits specialist"
Edward,D,Boswell,"3595 Cambridge Place","Glen Burnie",21061,EdwardDBoswell@armyspy.com,410-553-5544,cbab6a4c-0f32-459d-9f75-cac1f8c73232,39.202562,-76.584074,67.2,170,"Robinson Furniture","Radio and telecommunications equipment installer"
Elizabeth,B,Howard,"224 Tyler Avenue","Miami Springs",33166,ElizabethBHoward@jourrapide.com,305-290-2787,01ffaef3-2e0f-43b1-9a49-fed23130a84f,25.737583,-80.262491,68.6,160,"Realty Solution","File clerk"
Ronald,M,Hampton,"2760 Hood Avenue","San Diego",92111,RonaldMHampton@gustr.com,858-637-0387,8e8d7780-5f59-414e-8ed7-de6fc66ef0ff,32.831288,-117.239499,74.2,171,"Lawn N' Order Garden Care",Reporter
Mark,B,Thomas,"1054 Grove Street","Garden City",11530,MarkBThomas@gustr.com,631-741-0245,7cd9f9b8-ad71-4b72-930e-5b955d9dd443,40.661344,-73.586277,71.4,179,Sambo's,"Personnel clerk"
Willie,J,Cortez,"3872 Michael Street",Houston,77063,WillieJCortez@fleckens.hu,713-785-5758,8990ba6e-917d-43d6-a17a-d5e41d82f5bb,29.685855,-95.539451,101.6,185,"Budget Tapes & Records","Fitness director"
Joseph,L,Kelly,"437 Science Center Drive","Soda Springs",83276,JosephLKelly@rhyta.com,208-547-1750,038ac616-f3ab-4fbe-ad18-e17a4772792e,42.818805,-111.570457,71.2,183,"Destiny Realty Solutions","Chief information officer"
Everett,S,Limon,"3583 Olive Street",Toledo,43604,EverettSLimon@armyspy.com,419-321-2344,895a0c2a-dbbf-4eac-9713-394c13ce07c5,41.672111,-83.625879,78.4,170,"Total Quality",Optometrist
Matthew,J,Barber,"1092 Clearview Drive",Aurora,80015,MatthewJBarber@jourrapide.com,303-693-0104,0c0572e1-6f50-49a4-bab9-d985ba802b28,39.638202,-104.697994,71.2,178,"Mr. Clark's Appliances","Construction and maintenance painter"
Ophelia,B,Truman,"2094 Washburn Street","Baton Rouge",70814,OpheliaBTruman@rhyta.com,225-405-4284,b231933c-7536-4628-92ef-7e8da28cce7e,30.401388,-90.97516,56.0,157,"Mansmann's Department Store","Payroll analyst"
Douglas,L,Johnson,"4433 Grey Fox Farm Road",Houston,77042,DouglasLJohnson@teleworm.us,281-778-4515,2397710e-47f6-4b1b-b81e-807b43beba24,29.811696,-95.574917,83.8,176,"Tee Town","Massage therapist"
Beverly,G,Ramirez,"3827 Ritter Street",Birmingham,35222,BeverlyGRamirez@cuvox.de,256-239-9518,d76c632e-4a7b-44f7-9df2-6c2468de3944,33.535519,-86.725936,81.7,162,"Omni Architectural Designs","Parts salesperson"
Vivian,J,Lewis,"3724 Hillcrest Lane",Riverside,92501,VivianJLewis@jourrapide.com,951-222-2871,806d7a3c-d712-412d-bfd8-3718927b323b,34.022424,-117.465069,74.2,163,"The Goose and Duck","Amusement and recreation attendant"
Erika,D,Folsom,"3807 Chicago Avenue",Dinuba,93618,ErikaDFolsom@cuvox.de,559-596-9992,528aca79-261c-4532-b51a-187f648f7703,36.581792,-119.337117,86.3,158,"Pace Membership Warehouse","Control and valve installer"
Bradley,C,Ware,"4941 Mount Olive Road",Lilburn,30247,BradleyCWare@teleworm.us,678-924-2417,02c15323-1290-4311-9676-59ce1481c86d,33.950834,-84.166762,71.3,185,"The White Rabbit","Store manager"
Mabel,P,Reddick,"3914 Drummond Street","New Brunswick",08901,MabelPReddick@teleworm.us,973-302-7723,bf6406fa-6130-4c66-94a4-61bd67855b64,40.499623,-74.49479,104.0,167,"The Great Train Stores","Gate agent"
Douglas,A,Heiner,"702 Hewes Avenue",Hanover,21076,DouglasAHeiner@superrito.com,443-668-6395,ca18463e-18ff-4ad0-bc84-df84c939f8cb,39.079768,-76.705036,59.8,184,"Formula Gray","Industrial accountant"
Robert,F,Hill,"958 Pheasant Ridge Road",Philadelphia,19108,RobertFHill@jourrapide.com,215-554-4862,c7991b4a-f488-4829-a585-626b5cb3e817,39.97491,-75.204388,68.0,179,"Brilliant Home Designs","Securities, commodities, and financial services sales agent"
Daniel,B,Scott,"2119 Locust Court","Los Angeles",90017,DanielBScott@jourrapide.com,562-452-0757,47bbc3b3-86af-4313-8cb3-354d5179c12d,33.994099,-118.346556,102.4,168,Ole's,"Linguistic anthropologist"
Angela,F,Roberts,"1379 Franklin Street","Phenix City",36867,AngelaFRoberts@teleworm.us,334-614-1892,612d7a54-87ab-4011-902a-3077a2c64064,32.581021,-84.995366,68.9,157,"AM/PM Camp","Order clerk"
Wayne,M,Odell,"1583 Private Lane",Albany,31701,WayneMOdell@einrot.com,229-389-0969,33f57fb7-fd2f-4e79-82e1-3d947cf32a89,31.589363,-84.182954,92.4,177,"Family Toy","Fork lift operator"
Joanne,E,Newman,"4800 Seltice Way",Blackfoot,83221,JoanneENewman@gustr.com,208-681-8114,463bb1bd-125c-4806-afd5-b4f3f3f532c6,43.361327,-112.597666,63.7,170,"Young @ Heart","Electronics technician"
John,A,Murphy,"106 Oakridge Farm Lane","West Allis",53227,JohnAMurphy@gustr.com,262-357-1658,c590229f-dfe9-4a11-bd6b-e20a713b01f1,43.058803,-87.926057,86.3,180,"Peter Reeves",Plumber
Jeff,K,Cargile,"1077 Courtright Street",Galesburg,58035,JeffKCargile@gustr.com,701-488-9012,a8514331-0781-4364-b5a8-3a4536176072,47.176966,-97.51776,103.1,187,"Reliable Garden Management","Mixing and blending machine operator"
Tiffany,B,Griggs,"1090 Diamond Street",Charlotte,28263,TiffanyBGriggs@jourrapide.com,828-443-0497,f06dd99e-4eb3-4c8b-8ed7-6dacd355e8dd,35.290539,-80.774503,75.4,169,"Bodega Club","Nuclear medicine technologist"
Patrick,S,Briggs,"3312 Kimberly Way",Allendale,49401,PatrickSBriggs@gustr.com,616-895-9888,56d2641f-686b-4b7b-9ec2-bb90bfba363e,43.066255,-86.002832,74.8,179,Sherman's,"Game warden"
Charles,L,Nieves,"3562 Trainer Avenue",Orion,61273,CharlesLNieves@cuvox.de,309-526-0331,e9110c14-62fe-456e-a283-f8c059d77120,41.436549,-90.367411,94.9,173,"Seamans Furniture",Compositor
Luis,O,Bryant,"1576 Canis Heights Drive","Los Angeles",90071,LuisOBryant@fleckens.hu,213-688-4565,73c7e695-ee8d-49c4-a5e6-05a466e7c2ad,33.977838,-118.252325,100.0,165,Practi-Plan,"Mixing and blending machine setter"
Edna,S,German,"3176 Hall Street",Reno,89503,EdnaSGerman@jourrapide.com,702-555-9382,cbb455af-c7f7-44a4-b39c-51e7d0504fcc,39.576662,-119.865062,100.7,162,"Omni Source","Plant custodian"
Stanley,L,Gorman,"2025 Prospect Valley Road",Pomona,91766,StanleyLGorman@fleckens.hu,310-883-1498,d6f342b3-40c7-47b8-a6df-213bd65d4588,34.100442,-117.782728,98.7,178,"Hills Supermarkets","Floor finisher"
Aurelia,D,Castellon,"1146 Harley Vincent Drive","North Olmsted",44070,AureliaDCastellon@cuvox.de,440-686-0059,393291d1-3c32-49e4-848d-3573d235f86b,41.377315,-81.912651,73.8,161,AdventureSports!,Photogrammetrist
Catherine,J,Lucero,"651 Rebecca Street","Elk Grove Village",60007,CatherineJLucero@armyspy.com,847-773-6800,695b9cdf-0d4c-4999-9a7a-88b9b4a61d9e,42.071212,-88.007473,52.4,161,"Eli Moore Inc","Two-stroke engine mechanic"
Josette,J,Walls,"4670 Bridge Street",Tulsa,74116,JosetteJWalls@cuvox.de,918-914-6349,44ff8570-e2a7-4f1f-8ba7-70588d6ca6a5,36.119608,-95.831494,73.6,160,"Copeland Sports","Banker investigator"
Alison,K,Hanson,"1670 Del Dew Drive","Lexington Park",20653,AlisonKHanson@gustr.com,301-826-8732,2c379b4f-078c-4357-8518-bc1ffd15e538,38.329684,-76.358894,94.0,163,"Kessel Food Market","Professional scout"
Greg,S,Capel,"3793 Pin Oak Drive",Muscatine,52761,GregSCapel@rhyta.com,563-299-5782,b6d99330-b2b7-4033-b3bc-7844cf0f0371,41.349248,-91.067388,109.1,176,Sportmart,Cytotechnologist
Patricia,J,Massey,"2048 Comfort Court",Madison,53711,PatriciaJMassey@fleckens.hu,608-273-0521,d46684f0-b4b2-4795-8913-57aabb18a954,43.049949,-89.296576,96.2,165,"Future Plan","Recreation and parks director"
Carolyn,J,Miles,"1058 Pineview Drive",Manomet,02345,CarolynJMiles@armyspy.com,508-209-9399,75f2a54b-81a8-4a98-ad7a-d88d03cee34a,42.002598,-70.613152,101.3,170,Martin's,Dietitian
Seymour,D,Fitzgerald,"1112 Pinchelone Street","Virginia Beach",23464,SeymourDFitzgerald@teleworm.us,757-366-8187,2952095f-4375-40b8-bce4-3413ffd46c6b,36.843979,-76.173056,99.7,162,"Family Toy","Ophthalmic laboratory technician"
Michael,G,Jessup,"2916 Alfred Drive",Queens,11101,MichaelGJessup@gustr.com,718-248-2577,ff2c5884-63fe-4cc0-bf1c-bd7b0ad28dec,40.638127,-73.814993,65.6,163,ManCharm,"Airline copilots"
Pamela,W,Fisher,"3015 Stockert Hollow Road",Seattle,98109,PamelaWFisher@jourrapide.com,425-948-2189,b3d04196-fcc7-4c67-b187-5e4f3631ffe1,47.678982,-122.403913,69.6,174,"Enviro Architectural Designs","State trooper"
Kathleen,D,Quarles,"1879 Tenmile Road",Needham,02192,KathleenDQuarles@cuvox.de,781-686-4089,aeaca9f9-4616-4b91-8c62-7eadc2bcbe93,42.38844,-71.273153,96.1,163,"Record Bar","Chiropractic physician"
Cyril,A,Ordaz,"2704 Trouser Leg Road",Milwaukee,53202,CyrilAOrdaz@gustr.com,414-216-4716,f2910dc5-dc64-4b70-9533-c9c6f14aefa2,43.128676,-87.864986,94.8,170,"Electronic Geek","Scheduling clerk"
Juan,S,Cobb,"3825 Bell Street","San Antonio",78229,JuanSCobb@armyspy.com,210-989-3192,d904ac37-37aa-4a18-b247-172fbba284ef,29.593879,-98.528101,92.4,176,"Affinity Investment Group","Instructional designer"
Janice,J,Van,"2861 Melville Street",Jackson,38301,JaniceJVan@gustr.com,731-389-7044,c59b62b9-67db-4665-bd01-e60972bc1fbe,35.507904,-88.83383,97.9,160,Sagebrush,Prosthodontist
Kevin,B,Lackey,"702 Veltri Drive",Anchorage,99501,KevinBLackey@armyspy.com,907-277-2721,97de8e6a-59a9-444a-81d0-104cdb8ac130,61.275005,-149.820982,85.4,170,"Cut Rite Lawn Care",Superintendent
